3:I[407,["972","static/chunks/972-3970c3e490207029.js","318","static/chunks/app/cities/page-869a3bc34c8d921d.js"],"BreadcrumbSchema"]
4:I[3290,["972","static/chunks/972-3970c3e490207029.js","318","static/chunks/app/cities/page-869a3bc34c8d921d.js"],"ResponsiveBreadcrumbs"]
5:I[2972,["972","static/chunks/972-3970c3e490207029.js","318","static/chunks/app/cities/page-869a3bc34c8d921d.js"],""]
6:I[457,["972","static/chunks/972-3970c3e490207029.js","318","static/chunks/app/cities/page-869a3bc34c8d921d.js"],"default"]
7:I[4707,[],""]
8:I[6423,[],""]
b:I[8003,["972","static/chunks/972-3970c3e490207029.js","559","static/chunks/559-03ade7cbf7642e7f.js","208","static/chunks/208-95fd81486bbb3a46.js","185","static/chunks/app/layout-a6e12488d37f0076.js"],""]
c:I[6373,["972","static/chunks/972-3970c3e490207029.js","559","static/chunks/559-03ade7cbf7642e7f.js","208","static/chunks/208-95fd81486bbb3a46.js","185","static/chunks/app/layout-a6e12488d37f0076.js"],"default"]
d:I[329,["972","static/chunks/972-3970c3e490207029.js","559","static/chunks/559-03ade7cbf7642e7f.js","208","static/chunks/208-95fd81486bbb3a46.js","185","static/chunks/app/layout-a6e12488d37f0076.js"],"default"]
e:I[4207,["972","static/chunks/972-3970c3e490207029.js","559","static/chunks/559-03ade7cbf7642e7f.js","208","static/chunks/208-95fd81486bbb3a46.js","185","static/chunks/app/layout-a6e12488d37f0076.js"],"default"]
2:T5b39e,{"@context":"https://schema.org","@type":"CollectionPage","name":"Personal Loans by City","description":"Find personal loans in America's top 1,157 cities","url":"https://loan-platform.com/cities","breadcrumb":{"@type":"BreadcrumbList","itemListElement":[{"@type":"ListItem","position":1,"name":"Home","item":"https://loan-platform.com"},{"@type":"ListItem","position":2,"name":"Cities","item":"https://loan-platform.com/cities"}]},"mainEntity":{"@type":"ItemList","name":"Top 1,157 US Cities for Personal Loans","numberOfItems":1157,"itemListElement":[{"@type":"ListItem","position":1,"item":{"@type":"Place","name":"Los Angeles","address":{"@type":"PostalAddress","addressLocality":"Los Angeles","addressRegion":"CA","addressCountry":"US"},"geo":{"@type":"GeoCoordinates","latitude":34.0522,"longitude":-118.2437},"url":"https://loan-platform.com/cities/california/los-angeles"}},{"@type":"ListItem","position":2,"item":{"@type":"Place","name":"Houston","address":{"@type":"PostalAddress","addressLocality":"Houston","addressRegion":"TX","addressCountry":"US"},"geo":{"@type":"GeoCoordinates","latitude":29.7604,"longitude":-95.3698},"url":"https://loan-platform.com/cities/texas/houston"}},{"@type":"ListItem","position":3,"item":{"@type":"Place","name":"San Antonio","address":{"@type":"PostalAddress","addressLocality":"San Antonio","addressRegion":"TX","addressCountry":"US"},"geo":{"@type":"GeoCoordinates","latitude":29.4241,"longitude":-98.4936},"url":"https://loan-platform.com/cities/texas/san-antonio"}},{"@type":"ListItem","position":4,"item":{"@type":"Place","name":"San Diego","address":{"@type":"PostalAddress","addressLocality":"San Diego","addressRegion":"CA","addressCountry":"US"},"geo":{"@type":"GeoCoordinates","latitude":32.7157,"longitude":-117.1611},"url":"https://loan-platform.com/cities/california/san-diego"}},{"@type":"ListItem","position":5,"item":{"@type":"Place","name":"Dallas","address":{"@type":"PostalAddress","addressLocality":"Dallas","addressRegion":"TX","addressCountry":"US"},"geo":{"@type":"GeoCoordinates","latitude":32.7767,"longitude":-96.797},"url":"https://loan-platform.com/cities/texas/dallas"}},{"@type":"ListItem","position":6,"item":{"@type":"Place","name":"Jacksonville","address":{"@type":"PostalAddress","addressLocality":"Jacksonville","addressRegion":"FL","addressCountry":"US"},"geo":{"@type":"GeoCoordinates","latitude":30.3322,"longitude":-81.6557},"url":"https://loan-platform.com/cities/florida/jacksonville"}},{"@type":"ListItem","position":7,"item":{"@type":"Place","name":"Apalachicola","address":{"@type":"PostalAddress","addressLocality":"Apalachicola","addressRegion":"FL","addressCountry":"US"},"geo":{"@type":"GeoCoordinates","latitude":29.7258,"longitude":-84.9832},"url":"https://loan-platform.com/cities/florida/apalachicola"}},{"@type":"ListItem","position":8,"item":{"@type":"Place","name":"Atlantic Beach","address":{"@type":"PostalAddress","addressLocality":"Atlantic Beach","addressRegion":"FL","addressCountry":"US"},"geo":{"@type":"GeoCoordinates","latitude":30.3344,"longitude":-81.3981},"url":"https://loan-platform.com/cities/florida/atlantic-beach"}},{"@type":"ListItem","position":9,"item":{"@type":"Place","name":"Bartow","address":{"@type":"PostalAddress","addressLocality":"Bartow","addressRegion":"FL","addressCountry":"US"},"geo":{"@type":"GeoCoordinates","latitude":27.8964,"longitude":-81.8431},"url":"https://loan-platform.com/cities/florida/bartow"}},{"@type":"ListItem","position":10,"item":{"@type":"Place","name":"Belle Glade","address":{"@type":"PostalAddress","addressLocality":"Belle Glade","addressRegion":"FL","addressCountry":"US"},"geo":{"@type":"GeoCoordinates","latitude":26.6845,"longitude":-80.6676},"url":"https://loan-platform.com/cities/florida/belle-glade"}},{"@type":"ListItem","position":11,"item":{"@type":"Place","name":"Brooksville","address":{"@type":"PostalAddress","addressLocality":"Brooksville","addressRegion":"FL","addressCountry":"US"},"geo":{"@type":"GeoCoordinates","latitude":28.5585,"longitude":-82.3879},"url":"https://loan-platform.com/cities/florida/brooksville"}},{"@type":"ListItem","position":12,"item":{"@type":"Place","name":"Cocoa","address":{"@type":"PostalAddress","addressLocality":"Cocoa","addressRegion":"FL","addressCountry":"US"},"geo":{"@type":"GeoCoordinates","latitude":28.3861,"longitude":-80.741},"url":"https://loan-platform.com/cities/florida/cocoa"}},{"@type":"ListItem","position":13,"item":{"@type":"Place","name":"Cocoa Beach","address":{"@type":"PostalAddress","addressLocality":"Cocoa Beach","addressRegion":"FL","addressCountry":"US"},"geo":{"@type":"GeoCoordinates","latitude":28.32,"longitude":-80.6081},"url":"https://loan-platform.com/cities/florida/cocoa-beach"}},{"@type":"ListItem","position":14,"item":{"@type":"Place","name":"Crystal River","address":{"@type":"PostalAddress","addressLocality":"Crystal River","addressRegion":"FL","addressCountry":"US"},"geo":{"@type":"GeoCoordinates","latitude":28.9025,"longitude":-82.5926},"url":"https://loan-platform.com/cities/florida/crystal-river"}},{"@type":"ListItem","position":15,"item":{"@type":"Place","name":"Destin","address":{"@type":"PostalAddress","addressLocality":"Destin","addressRegion":"FL","addressCountry":"US"},"geo":{"@type":"GeoCoordinates","latitude":30.3935,"longitude":-86.4958},"url":"https://loan-platform.com/cities/florida/destin"}},{"@type":"ListItem","position":16,"item":{"@type":"Place","name":"DeLand","address":{"@type":"PostalAddress","addressLocality":"DeLand","addressRegion":"FL","addressCountry":"US"},"geo":{"@type":"GeoCoordinates","latitude":29.0283,"longitude":-81.3},"url":"https://loan-platform.com/cities/florida/deland"}},{"@type":"ListItem","position":17,"item":{"@type":"Place","name":"Edgewater","address":{"@type":"PostalAddress","addressLocality":"Edgewater","addressRegion":"FL","addressCountry":"US"},"geo":{"@type":"GeoCoordinates","latitude":28.988,"longitude":-80.9023},"url":"https://loan-platform.com/cities/florida/edgewater"}},{"@type":"ListItem","position":18,"item":{"@type":"Place","name":"Fernandina Beach","address":{"@type":"PostalAddress","addressLocality":"Fernandina Beach","addressRegion":"FL","addressCountry":"US"},"geo":{"@type":"GeoCoordinates","latitude":30.6697,"longitude":-81.4626},"url":"https://loan-platform.com/cities/florida/fernandina-beach"}},{"@type":"ListItem","position":19,"item":{"@type":"Place","name":"Fort Walton Beach","address":{"@type":"PostalAddress","addressLocality":"Fort Walton Beach","addressRegion":"FL","addressCountry":"US"},"geo":{"@type":"GeoCoordinates","latitude":30.4058,"longitude":-86.6188},"url":"https://loan-platform.com/cities/florida/fort-walton-beach"}},{"@type":"ListItem","position":20,"item":{"@type":"Place","name":"Haines City","address":{"@type":"PostalAddress","addressLocality":"Haines City","addressRegion":"FL","addressCountry":"US"},"geo":{"@type":"GeoCoordinates","latitude":28.1142,"longitude":-81.6178},"url":"https://loan-platform.com/cities/florida/haines-city"}},{"@type":"ListItem","position":21,"item":{"@type":"Place","name":"Indian Harbour Beach","address":{"@type":"PostalAddress","addressLocality":"Indian Harbour Beach","addressRegion":"FL","addressCountry":"US"},"geo":{"@type":"GeoCoordinates","latitude":28.1481,"longitude":-80.5884},"url":"https://loan-platform.com/cities/florida/indian-harbour-beach"}},{"@type":"ListItem","position":22,"item":{"@type":"Place","name":"Key Biscayne","address":{"@type":"PostalAddress","addressLocality":"Key Biscayne","addressRegion":"FL","addressCountry":"US"},"geo":{"@type":"GeoCoordinates","latitude":25.6937,"longitude":-80.162},"url":"https://loan-platform.com/cities/florida/key-biscayne"}},{"@type":"ListItem","position":23,"item":{"@type":"Place","name":"Leesburg","address":{"@type":"PostalAddress","addressLocality":"Leesburg","addressRegion":"FL","addressCountry":"US"},"geo":{"@type":"GeoCoordinates","latitude":28.8108,"longitude":-81.8779},"url":"https://loan-platform.com/cities/florida/leesburg"}},{"@type":"ListItem","position":24,"item":{"@type":"Place","name":"Marianna","address":{"@type":"PostalAddress","addressLocality":"Marianna","addressRegion":"FL","addressCountry":"US"},"geo":{"@type":"GeoCoordinates","latitude":30.7744,"longitude":-85.2269},"url":"https://loan-platform.com/cities/florida/marianna"}},{"@type":"ListItem","position":25,"item":{"@type":"Place","name":"Rehoboth Beach","address":{"@type":"PostalAddress","addressLocality":"Rehoboth Beach","addressRegion":"DE","addressCountry":"US"},"geo":{"@type":"GeoCoordinates","latitude":38.715,"longitude":-75.0899},"url":"https://loan-platform.com/cities/delaware/rehoboth-beach"}},{"@type":"ListItem","position":26,"item":{"@type":"Place","name":"Lewes","address":{"@type":"PostalAddress","addressLocality":"Lewes","addressRegion":"DE","addressCountry":"US"},"geo":{"@type":"GeoCoordinates","latitude":38.7746,"longitude":-75.1393},"url":"https://loan-platform.com/cities/delaware/lewes"}},{"@type":"ListItem","position":27,"item":{"@type":"Place","name":"Seaford","address":{"@type":"PostalAddress","addressLocality":"Seaford","addressRegion":"DE","addressCountry":"US"},"geo":{"@type":"GeoCoordinates","latitude":38.6412,"longitude":-75.6113},"url":"https://loan-platform.com/cities/delaware/seaford-de"}},{"@type":"ListItem","position":28,"item":{"@type":"Place","name":"Laurel","address":{"@type":"PostalAddress","addressLocality":"Laurel","addressRegion":"DE","addressCountry":"US"},"geo":{"@type":"GeoCoordinates","latitude":38.5565,"longitude":-75.5719},"url":"https://loan-platform.com/cities/delaware/laurel-de"}},{"@type":"ListItem","position":29,"item":{"@type":"Place","name":"Harrington","address":{"@type":"PostalAddress","addressLocality":"Harrington","addressRegion":"DE","addressCountry":"US"},"geo":{"@type":"GeoCoordinates","latitude":38.9237,"longitude":-75.5777},"url":"https://loan-platform.com/cities/delaware/harrington-de"}},{"@type":"ListItem","position":30,"item":{"@type":"Place","name":"Camden","address":{"@type":"PostalAddress","addressLocality":"Camden","addressRegion":"DE","addressCountry":"US"},"geo":{"@type":"GeoCoordinates","latitude":39.1134,"longitude":-75.5413},"url":"https://loan-platform.com/cities/delaware/camden-de"}},{"@type":"ListItem","position":31,"item":{"@type":"Place","name":"New Castle","address":{"@type":"PostalAddress","addressLocality":"New Castle","addressRegion":"DE","addressCountry":"US"},"geo":{"@type":"GeoCoordinates","latitude":39.662,"longitude":-75.566},"url":"https://loan-platform.com/cities/delaware/new-castle-de"}},{"@type":"ListItem","position":32,"item":{"@type":"Place","name":"Bear","address":{"@type":"PostalAddress","addressLocality":"Bear","addressRegion":"DE","addressCountry":"US"},"geo":{"@type":"GeoCoordinates","latitude":39.629,"longitude":-75.658},"url":"https://loan-platform.com/cities/delaware/bear-de"}},{"@type":"ListItem","position":33,"item":{"@type":"Place","name":"Glasgow","address":{"@type":"PostalAddress","addressLocality":"Glasgow","addressRegion":"DE","addressCountry":"US"},"geo":{"@type":"GeoCoordinates","latitude":39.6065,"longitude":-75.7455},"url":"https://loan-platform.com/cities/delaware/glasgow-de"}},{"@type":"ListItem","position":34,"item":{"@type":"Place","name":"Hockessin","address":{"@type":"PostalAddress","addressLocality":"Hockessin","addressRegion":"DE","addressCountry":"US"},"geo":{"@type":"GeoCoordinates","latitude":39.7879,"longitude":-75.696},"url":"https://loan-platform.com/cities/delaware/hockessin"}},{"@type":"ListItem","position":35,"item":{"@type":"Place","name":"Melbourne Beach","address":{"@type":"PostalAddress","addressLocality":"Melbourne Beach","addressRegion":"FL","addressCountry":"US"},"geo":{"@type":"GeoCoordinates","latitude":28.0689,"longitude":-80.5606},"url":"https://loan-platform.com/cities/florida/melbourne-beach"}},{"@type":"ListItem","position":36,"item":{"@type":"Place","name":"Milton","address":{"@type":"PostalAddress","addressLocality":"Milton","addressRegion":"FL","addressCountry":"US"},"geo":{"@type":"GeoCoordinates","latitude":30.6324,"longitude":-87.0397},"url":"https://loan-platform.com/cities/florida/milton"}},{"@type":"ListItem","position":37,"item":{"@type":"Place","name":"Niceville","address":{"@type":"PostalAddress","addressLocality":"Niceville","addressRegion":"FL","addressCountry":"US"},"geo":{"@type":"GeoCoordinates","latitude":30.5169,"longitude":-86.482},"url":"https://loan-platform.com/cities/florida/niceville"}},{"@type":"ListItem","position":38,"item":{"@type":"Place","name":"North Palm Beach","address":{"@type":"PostalAddress","addressLocality":"North Palm Beach","addressRegion":"FL","addressCountry":"US"},"geo":{"@type":"GeoCoordinates","latitude":26.8171,"longitude":-80.0817},"url":"https://loan-platform.com/cities/florida/north-palm-beach"}},{"@type":"ListItem","position":39,"item":{"@type":"Place","name":"Orange Park","address":{"@type":"PostalAddress","addressLocality":"Orange Park","addressRegion":"FL","addressCountry":"US"},"geo":{"@type":"GeoCoordinates","latitude":30.1658,"longitude":-81.7074},"url":"https://loan-platform.com/cities/florida/orange-park"}},{"@type":"ListItem","position":40,"item":{"@type":"Place","name":"Rockledge","address":{"@type":"PostalAddress","addressLocality":"Rockledge","addressRegion":"FL","addressCountry":"US"},"geo":{"@type":"GeoCoordinates","latitude":28.35,"longitude":-80.7253},"url":"https://loan-platform.com/cities/florida/rockledge"}},{"@type":"ListItem","position":41,"item":{"@type":"Place","name":"Bangor","address":{"@type":"PostalAddress","addressLocality":"Bangor","addressRegion":"ME","addressCountry":"US"},"geo":{"@type":"GeoCoordinates","latitude":44.8016,"longitude":-68.7712},"url":"https://loan-platform.com/cities/maine/bangor-me"}},{"@type":"ListItem","position":42,"item":{"@type":"Place","name":"South Portland","address":{"@type":"PostalAddress","addressLocality":"South Portland","addressRegion":"ME","addressCountry":"US"},"geo":{"@type":"GeoCoordinates","latitude":43.6415,"longitude":-70.2409},"url":"https://loan-platform.com/cities/maine/south-portland"}},{"@type":"ListItem","position":43,"item":{"@type":"Place","name":"Auburn","address":{"@type":"PostalAddress","addressLocality":"Auburn","addressRegion":"ME","addressCountry":"US"},"geo":{"@type":"GeoCoordinates","latitude":44.0979,"longitude":-70.2312},"url":"https://loan-platform.com/cities/maine/auburn-me"}},{"@type":"ListItem","position":44,"item":{"@type":"Place","name":"Scarborough","address":{"@type":"PostalAddress","addressLocality":"Scarborough","addressRegion":"ME","addressCountry":"US"},"geo":{"@type":"GeoCoordinates","latitude":43.5903,"longitude":-70.3456},"url":"https://loan-platform.com/cities/maine/scarborough-me"}},{"@type":"ListItem","position":45,"item":{"@type":"Place","name":"Brunswick","address":{"@type":"PostalAddress","addressLocality":"Brunswick","addressRegion":"ME","addressCountry":"US"},"geo":{"@type":"GeoCoordinates","latitude":43.914,"longitude":-69.9653},"url":"https://loan-platform.com/cities/maine/brunswick-me"}},{"@type":"ListItem","position":46,"item":{"@type":"Place","name":"Windham","address":{"@type":"PostalAddress","addressLocality":"Windham","addressRegion":"ME","addressCountry":"US"},"geo":{"@type":"GeoCoordinates","latitude":43.8065,"longitude":-70.414},"url":"https://loan-platform.com/cities/maine/windham-me"}},{"@type":"ListItem","position":47,"item":{"@type":"Place","name":"Waterville","address":{"@type":"PostalAddress","addressLocality":"Waterville","addressRegion":"ME","addressCountry":"US"},"geo":{"@type":"GeoCoordinates","latitude":44.552,"longitude":-69.6317},"url":"https://loan-platform.com/cities/maine/waterville"}},{"@type":"ListItem","position":48,"item":{"@type":"Place","name":"York","address":{"@type":"PostalAddress","addressLocality":"York","addressRegion":"ME","addressCountry":"US"},"geo":{"@type":"GeoCoordinates","latitude":43.1617,"longitude":-70.6483},"url":"https://loan-platform.com/cities/maine/york-me"}},{"@type":"ListItem","position":49,"item":{"@type":"Place","name":"Orono","address":{"@type":"PostalAddress","addressLocality":"Orono","addressRegion":"ME","addressCountry":"US"},"geo":{"@type":"GeoCoordinates","latitude":44.8831,"longitude":-68.6719},"url":"https://loan-platform.com/cities/maine/orono-me"}},{"@type":"ListItem","position":50,"item":{"@type":"Place","name":"Presque Isle","address":{"@type":"PostalAddress","addressLocality":"Presque Isle","addressRegion":"ME","addressCountry":"US"},"geo":{"@type":"GeoCoordinates","latitude":46.681,"longitude":-68.0159},"url":"https://loan-platform.com/cities/maine/presque-isle"}},{"@type":"ListItem","position":51,"item":{"@type":"Place","name":"Honolulu","address":{"@type":"PostalAddress","addressLocality":"Honolulu","addressRegion":"HI","addressCountry":"US"},"geo":{"@type":"GeoCoordinates","latitude":21.3069,"longitude":-157.8583},"url":"https://loan-platform.com/cities/hawaii/honolulu-hi"}},{"@type":"ListItem","position":52,"item":{"@type":"Place","name":"Hilo","address":{"@type":"PostalAddress","addressLocality":"Hilo","addressRegion":"HI","addressCountry":"US"},"geo":{"@type":"GeoCoordinates","latitude":19.7071,"longitude":-155.0885},"url":"https://loan-platform.com/cities/hawaii/hilo"}},{"@type":"ListItem","position":53,"item":{"@type":"Place","name":"Kailua-Kona","address":{"@type":"PostalAddress","addressLocality":"Kailua-Kona","addressRegion":"HI","addressCountry":"US"},"geo":{"@type":"GeoCoordinates","latitude":19.6399,"longitude":-155.9969},"url":"https://loan-platform.com/cities/hawaii/kailua-kona"}},{"@type":"ListItem","position":54,"item":{"@type":"Place","name":"Kahului","address":{"@type":"PostalAddress","addressLocality":"Kahului","addressRegion":"HI","addressCountry":"US"},"geo":{"@type":"GeoCoordinates","latitude":20.8893,"longitude":-156.4726},"url":"https://loan-platform.com/cities/hawaii/kahului"}},{"@type":"ListItem","position":55,"item":{"@type":"Place","name":"Kihei","address":{"@type":"PostalAddress","addressLocality":"Kihei","addressRegion":"HI","addressCountry":"US"},"geo":{"@type":"GeoCoordinates","latitude":20.775,"longitude":-156.4575},"url":"https://loan-platform.com/cities/hawaii/kihei"}},{"@type":"ListItem","position":56,"item":{"@type":"Place","name":"Lahaina","address":{"@type":"PostalAddress","addressLocality":"Lahaina","addressRegion":"HI","addressCountry":"US"},"geo":{"@type":"GeoCoordinates","latitude":20.8783,"longitude":-156.6825},"url":"https://loan-platform.com/cities/hawaii/lahaina"}},{"@type":"ListItem","position":57,"item":{"@type":"Place","name":"Kapolei","address":{"@type":"PostalAddress","addressLocality":"Kapolei","addressRegion":"HI","addressCountry":"US"},"geo":{"@type":"GeoCoordinates","latitude":21.335,"longitude":-158.056},"url":"https://loan-platform.com/cities/hawaii/kapolei"}},{"@type":"ListItem","position":58,"item":{"@type":"Place","name":"Kaneohe","address":{"@type":"PostalAddress","addressLocality":"Kaneohe","addressRegion":"HI","addressCountry":"US"},"geo":{"@type":"GeoCoordinates","latitude":21.4181,"longitude":-157.8036},"url":"https://loan-platform.com/cities/hawaii/kaneohe"}},{"@type":"ListItem","position":59,"item":{"@type":"Place","name":"Pearl City","address":{"@type":"PostalAddress","addressLocality":"Pearl City","addressRegion":"HI","addressCountry":"US"},"geo":{"@type":"GeoCoordinates","latitude":21.3972,"longitude":-157.9752},"url":"https://loan-platform.com/cities/hawaii/pearl-city"}},{"@type":"ListItem","position":60,"item":{"@type":"Place","name":"Lihue","address":{"@type":"PostalAddress","addressLocality":"Lihue","addressRegion":"HI","addressCountry":"US"},"geo":{"@type":"GeoCoordinates","latitude":21.9749,"longitude":-159.3677},"url":"https://loan-platform.com/cities/hawaii/lihue"}},{"@type":"ListItem","position":61,"item":{"@type":"Place","name":"Satellite Beach","address":{"@type":"PostalAddress","addressLocality":"Satellite Beach","addressRegion":"FL","addressCountry":"US"},"geo":{"@type":"GeoCoordinates","latitude":28.1761,"longitude":-80.59},"url":"https://loan-platform.com/cities/florida/satellite-beach"}},{"@type":"ListItem","position":62,"item":{"@type":"Place","name":"Stuart","address":{"@type":"PostalAddress","addressLocality":"Stuart","addressRegion":"FL","addressCountry":"US"},"geo":{"@type":"GeoCoordinates","latitude":27.1975,"longitude":-80.2528},"url":"https://loan-platform.com/cities/florida/stuart"}},{"@type":"ListItem","position":63,"item":{"@type":"Place","name":"Tavares","address":{"@type":"PostalAddress","addressLocality":"Tavares","addressRegion":"FL","addressCountry":"US"},"geo":{"@type":"GeoCoordinates","latitude":28.8042,"longitude":-81.7256},"url":"https://loan-platform.com/cities/florida/tavares"}},{"@type":"ListItem","position":64,"item":{"@type":"Place","name":"Vero Beach","address":{"@type":"PostalAddress","addressLocality":"Vero Beach","addressRegion":"FL","addressCountry":"US"},"geo":{"@type":"GeoCoordinates","latitude":27.6386,"longitude":-80.3973},"url":"https://loan-platform.com/cities/florida/vero-beach"}},{"@type":"ListItem","position":65,"item":{"@type":"Place","name":"West Melbourne","address":{"@type":"PostalAddress","addressLocality":"West Melbourne","addressRegion":"FL","addressCountry":"US"},"geo":{"@type":"GeoCoordinates","latitude":28.0717,"longitude":-80.6534},"url":"https://loan-platform.com/cities/florida/west-melbourne"}},{"@type":"ListItem","position":66,"item":{"@type":"Place","name":"Dublin","address":{"@type":"PostalAddress","addressLocality":"Dublin","addressRegion":"CA","addressCountry":"US"},"geo":{"@type":"GeoCoordinates","latitude":37.7022,"longitude":-121.9358},"url":"https://loan-platform.com/cities/california/dublin"}},{"@type":"ListItem","position":67,"item":{"@type":"Place","name":"Rocklin","address":{"@type":"PostalAddress","addressLocality":"Rocklin","addressRegion":"CA","addressCountry":"US"},"geo":{"@type":"GeoCoordinates","latitude":38.7907,"longitude":-121.2358},"url":"https://loan-platform.com/cities/california/rocklin"}},{"@type":"ListItem","position":68,"item":{"@type":"Place","name":"Lincoln","address":{"@type":"PostalAddress","addressLocality":"Lincoln","addressRegion":"CA","addressCountry":"US"},"geo":{"@type":"GeoCoordinates","latitude":38.8916,"longitude":-121.293},"url":"https://loan-platform.com/cities/california/lincoln-ca"}},{"@type":"ListItem","position":69,"item":{"@type":"Place","name":"Novato","address":{"@type":"PostalAddress","addressLocality":"Novato","addressRegion":"CA","addressCountry":"US"},"geo":{"@type":"GeoCoordinates","latitude":38.1074,"longitude":-122.5697},"url":"https://loan-platform.com/cities/california/novato"}},{"@type":"ListItem","position":70,"item":{"@type":"Place","name":"Camarillo","address":{"@type":"PostalAddress","addressLocality":"Camarillo","addressRegion":"CA","addressCountry":"US"},"geo":{"@type":"GeoCoordinates","latitude":34.2164,"longitude":-119.0376},"url":"https://loan-platform.com/cities/california/camarillo"}},{"@type":"ListItem","position":71,"item":{"@type":"Place","name":"Moorpark","address":{"@type":"PostalAddress","addressLocality":"Moorpark","addressRegion":"CA","addressCountry":"US"},"geo":{"@type":"GeoCoordinates","latitude":34.2856,"longitude":-118.882},"url":"https://loan-platform.com/cities/california/moorpark"}},{"@type":"ListItem","position":72,"item":{"@type":"Place","name":"Paso Robles","address":{"@type":"PostalAddress","addressLocality":"Paso Robles","addressRegion":"CA","addressCountry":"US"},"geo":{"@type":"GeoCoordinates","latitude":35.6266,"longitude":-120.691},"url":"https://loan-platform.com/cities/california/paso-robles"}},{"@type":"ListItem","position":73,"item":{"@type":"Place","name":"Atascadero","address":{"@type":"PostalAddress","addressLocality":"Atascadero","addressRegion":"CA","addressCountry":"US"},"geo":{"@type":"GeoCoordinates","latitude":35.4894,"longitude":-120.6707},"url":"https://loan-platform.com/cities/california/atascadero"}},{"@type":"ListItem","position":74,"item":{"@type":"Place","name":"Monterey","address":{"@type":"PostalAddress","addressLocality":"Monterey","addressRegion":"CA","addressCountry":"US"},"geo":{"@type":"GeoCoordinates","latitude":36.6002,"longitude":-121.8947},"url":"https://loan-platform.com/cities/california/monterey"}},{"@type":"ListItem","position":75,"item":{"@type":"Place","name":"Seaside","address":{"@type":"PostalAddress","addressLocality":"Seaside","addressRegion":"CA","addressCountry":"US"},"geo":{"@type":"GeoCoordinates","latitude":36.6111,"longitude":-121.851},"url":"https://loan-platform.com/cities/california/seaside"}},{"@type":"ListItem","position":76,"item":{"@type":"Place","name":"Colton","address":{"@type":"PostalAddress","addressLocality":"Colton","addressRegion":"CA","addressCountry":"US"},"geo":{"@type":"GeoCoordinates","latitude":34.0739,"longitude":-117.3137},"url":"https://loan-platform.com/cities/california/colton"}},{"@type":"ListItem","position":77,"item":{"@type":"Place","name":"Grand Terrace","address":{"@type":"PostalAddress","addressLocality":"Grand Terrace","addressRegion":"CA","addressCountry":"US"},"geo":{"@type":"GeoCoordinates","latitude":34.0331,"longitude":-117.3145},"url":"https://loan-platform.com/cities/california/grand-terrace"}},{"@type":"ListItem","position":78,"item":{"@type":"Place","name":"El Cajon","address":{"@type":"PostalAddress","addressLocality":"El Cajon","addressRegion":"CA","addressCountry":"US"},"geo":{"@type":"GeoCoordinates","latitude":32.7948,"longitude":-116.9625},"url":"https://loan-platform.com/cities/california/el-cajon"}},{"@type":"ListItem","position":79,"item":{"@type":"Place","name":"Temple City","address":{"@type":"PostalAddress","addressLocality":"Temple City","addressRegion":"CA","addressCountry":"US"},"geo":{"@type":"GeoCoordinates","latitude":34.1072,"longitude":-118.057},"url":"https://loan-platform.com/cities/california/temple-city"}},{"@type":"ListItem","position":80,"item":{"@type":"Place","name":"South Pasadena","address":{"@type":"PostalAddress","addressLocality":"South Pasadena","addressRegion":"CA","addressCountry":"US"},"geo":{"@type":"GeoCoordinates","latitude":34.1161,"longitude":-118.1503},"url":"https://loan-platform.com/cities/california/south-pasadena"}},{"@type":"ListItem","position":81,"item":{"@type":"Place","name":"Bellflower","address":{"@type":"PostalAddress","addressLocality":"Bellflower","addressRegion":"CA","addressCountry":"US"},"geo":{"@type":"GeoCoordinates","latitude":33.8817,"longitude":-118.117},"url":"https://loan-platform.com/cities/california/bellflower"}},{"@type":"ListItem","position":82,"item":{"@type":"Place","name":"Montebello","address":{"@type":"PostalAddress","addressLocality":"Montebello","addressRegion":"CA","addressCountry":"US"},"geo":{"@type":"GeoCoordinates","latitude":34.0095,"longitude":-118.1054},"url":"https://loan-platform.com/cities/california/montebello"}},{"@type":"ListItem","position":83,"item":{"@type":"Place","name":"Bell","address":{"@type":"PostalAddress","addressLocality":"Bell","addressRegion":"CA","addressCountry":"US"},"geo":{"@type":"GeoCoordinates","latitude":33.9775,"longitude":-118.187},"url":"https://loan-platform.com/cities/california/bell"}},{"@type":"ListItem","position":84,"item":{"@type":"Place","name":"Maywood","address":{"@type":"PostalAddress","addressLocality":"Maywood","addressRegion":"CA","addressCountry":"US"},"geo":{"@type":"GeoCoordinates","latitude":33.9867,"longitude":-118.1853},"url":"https://loan-platform.com/cities/california/maywood"}},{"@type":"ListItem","position":85,"item":{"@type":"Place","name":"Cudahy","address":{"@type":"PostalAddress","addressLocality":"Cudahy","addressRegion":"CA","addressCountry":"US"},"geo":{"@type":"GeoCoordinates","latitude":33.9606,"longitude":-118.1833},"url":"https://loan-platform.com/cities/california/cudahy"}},{"@type":"ListItem","position":86,"item":{"@type":"Place","name":"Vernon","address":{"@type":"PostalAddress","addressLocality":"Vernon","addressRegion":"CA","addressCountry":"US"},"geo":{"@type":"GeoCoordinates","latitude":34.0039,"longitude":-118.2301},"url":"https://loan-platform.com/cities/california/vernon"}},{"@type":"ListItem","position":87,"item":{"@type":"Place","name":"Martinez","address":{"@type":"PostalAddress","addressLocality":"Martinez","addressRegion":"CA","addressCountry":"US"},"geo":{"@type":"GeoCoordinates","latitude":38.0194,"longitude":-122.1341},"url":"https://loan-platform.com/cities/california/martinez"}},{"@type":"ListItem","position":88,"item":{"@type":"Place","name":"Pleasanton","address":{"@type":"PostalAddress","addressLocality":"Pleasanton","addressRegion":"CA","addressCountry":"US"},"geo":{"@type":"GeoCoordinates","latitude":37.6624,"longitude":-121.8747},"url":"https://loan-platform.com/cities/california/pleasanton"}},{"@type":"ListItem","position":89,"item":{"@type":"Place","name":"Agoura Hills","address":{"@type":"PostalAddress","addressLocality":"Agoura Hills","addressRegion":"CA","addressCountry":"US"},"geo":{"@type":"GeoCoordinates","latitude":34.1533,"longitude":-118.7617},"url":"https://loan-platform.com/cities/california/agoura-hills"}},{"@type":"ListItem","position":90,"item":{"@type":"Place","name":"American Canyon","address":{"@type":"PostalAddress","addressLocality":"American Canyon","addressRegion":"CA","addressCountry":"US"},"geo":{"@type":"GeoCoordinates","latitude":38.1749,"longitude":-122.2608},"url":"https://loan-platform.com/cities/california/american-canyon"}},{"@type":"ListItem","position":91,"item":{"@type":"Place","name":"Baldwin Park","address":{"@type":"PostalAddress","addressLocality":"Baldwin Park","addressRegion":"CA","addressCountry":"US"},"geo":{"@type":"GeoCoordinates","latitude":34.0856,"longitude":-117.9609},"url":"https://loan-platform.com/cities/california/baldwin-park"}},{"@type":"ListItem","position":92,"item":{"@type":"Place","name":"Bell Gardens","address":{"@type":"PostalAddress","addressLocality":"Bell Gardens","addressRegion":"CA","addressCountry":"US"},"geo":{"@type":"GeoCoordinates","latitude":33.9653,"longitude":-118.1515},"url":"https://loan-platform.com/cities/california/bell-gardens"}},{"@type":"ListItem","position":93,"item":{"@type":"Place","name":"Beverly Hills","address":{"@type":"PostalAddress","addressLocality":"Beverly Hills","addressRegion":"CA","addressCountry":"US"},"geo":{"@type":"GeoCoordinates","latitude":34.0736,"longitude":-118.4004},"url":"https://loan-platform.com/cities/california/beverly-hills"}},{"@type":"ListItem","position":94,"item":{"@type":"Place","name":"Benicia","address":{"@type":"PostalAddress","addressLocality":"Benicia","addressRegion":"CA","addressCountry":"US"},"geo":{"@type":"GeoCoordinates","latitude":38.0494,"longitude":-122.1586},"url":"https://loan-platform.com/cities/california/benicia"}},{"@type":"ListItem","position":95,"item":{"@type":"Place","name":"Capitola","address":{"@type":"PostalAddress","addressLocality":"Capitola","addressRegion":"CA","addressCountry":"US"},"geo":{"@type":"GeoCoordinates","latitude":36.9752,"longitude":-121.9538},"url":"https://loan-platform.com/cities/california/capitola"}},{"@type":"ListItem","position":96,"item":{"@type":"Place","name":"Ceres","address":{"@type":"PostalAddress","addressLocality":"Ceres","addressRegion":"CA","addressCountry":"US"},"geo":{"@type":"GeoCoordinates","latitude":37.5949,"longitude":-120.9577},"url":"https://loan-platform.com/cities/california/ceres"}},{"@type":"ListItem","position":97,"item":{"@type":"Place","name":"Claremont","address":{"@type":"PostalAddress","addressLocality":"Claremont","addressRegion":"CA","addressCountry":"US"},"geo":{"@type":"GeoCoordinates","latitude":34.0967,"longitude":-117.7198},"url":"https://loan-platform.com/cities/california/claremont"}},{"@type":"ListItem","position":98,"item":{"@type":"Place","name":"Commerce","address":{"@type":"PostalAddress","addressLocality":"Commerce","addressRegion":"CA","addressCountry":"US"},"geo":{"@type":"GeoCoordinates","latitude":34.0006,"longitude":-118.156},"url":"https://loan-platform.com/cities/california/commerce"}},{"@type":"ListItem","position":99,"item":{"@type":"Place","name":"Compton","address":{"@type":"PostalAddress","addressLocality":"Compton","addressRegion":"CA","addressCountry":"US"},"geo":{"@type":"GeoCoordinates","latitude":33.8958,"longitude":-118.2201},"url":"https://loan-platform.com/cities/california/compton"}},{"@type":"ListItem","position":100,"item":{"@type":"Place","name":"Corcoran","address":{"@type":"PostalAddress","addressLocality":"Corcoran","addressRegion":"CA","addressCountry":"US"},"geo":{"@type":"GeoCoordinates","latitude":36.098,"longitude":-119.5604},"url":"https://loan-platform.com/cities/california/corcoran"}},{"@type":"ListItem","position":101,"item":{"@type":"Place","name":"Coronado","address":{"@type":"PostalAddress","addressLocality":"Coronado","addressRegion":"CA","addressCountry":"US"},"geo":{"@type":"GeoCoordinates","latitude":32.6859,"longitude":-117.1831},"url":"https://loan-platform.com/cities/california/coronado"}},{"@type":"ListItem","position":102,"item":{"@type":"Place","name":"Corte Madera","address":{"@type":"PostalAddress","addressLocality":"Corte Madera","addressRegion":"CA","addressCountry":"US"},"geo":{"@type":"GeoCoordinates","latitude":37.9255,"longitude":-122.5275},"url":"https://loan-platform.com/cities/california/corte-madera"}},{"@type":"ListItem","position":103,"item":{"@type":"Place","name":"Cotati","address":{"@type":"PostalAddress","addressLocality":"Cotati","addressRegion":"CA","addressCountry":"US"},"geo":{"@type":"GeoCoordinates","latitude":38.3269,"longitude":-122.7074},"url":"https://loan-platform.com/cities/california/cotati"}},{"@type":"ListItem","position":104,"item":{"@type":"Place","name":"Crescent City","address":{"@type":"PostalAddress","addressLocality":"Crescent City","addressRegion":"CA","addressCountry":"US"},"geo":{"@type":"GeoCoordinates","latitude":41.7558,"longitude":-124.2026},"url":"https://loan-platform.com/cities/california/crescent-city"}},{"@type":"ListItem","position":105,"item":{"@type":"Place","name":"Delano","address":{"@type":"PostalAddress","addressLocality":"Delano","addressRegion":"CA","addressCountry":"US"},"geo":{"@type":"GeoCoordinates","latitude":35.7688,"longitude":-119.2471},"url":"https://loan-platform.com/cities/california/delano"}},{"@type":"ListItem","position":106,"item":{"@type":"Place","name":"El Cerrito","address":{"@type":"PostalAddress","addressLocality":"El Cerrito","addressRegion":"CA","addressCountry":"US"},"geo":{"@type":"GeoCoordinates","latitude":37.9156,"longitude":-122.3116},"url":"https://loan-platform.com/cities/california/el-cerrito"}},{"@type":"ListItem","position":107,"item":{"@type":"Place","name":"El Segundo","address":{"@type":"PostalAddress","addressLocality":"El Segundo","addressRegion":"CA","addressCountry":"US"},"geo":{"@type":"GeoCoordinates","latitude":33.9192,"longitude":-118.4165},"url":"https://loan-platform.com/cities/california/el-segundo"}},{"@type":"ListItem","position":108,"item":{"@type":"Place","name":"Eureka","address":{"@type":"PostalAddress","addressLocality":"Eureka","addressRegion":"CA","addressCountry":"US"},"geo":{"@type":"GeoCoordinates","latitude":40.8021,"longitude":-124.1637},"url":"https://loan-platform.com/cities/california/eureka"}},{"@type":"ListItem","position":109,"item":{"@type":"Place","name":"Fillmore","address":{"@type":"PostalAddress","addressLocality":"Fillmore","addressRegion":"CA","addressCountry":"US"},"geo":{"@type":"GeoCoordinates","latitude":34.3992,"longitude":-118.918},"url":"https://loan-platform.com/cities/california/fillmore"}},{"@type":"ListItem","position":110,"item":{"@type":"Place","name":"Firebaugh","address":{"@type":"PostalAddress","addressLocality":"Firebaugh","addressRegion":"CA","addressCountry":"US"},"geo":{"@type":"GeoCoordinates","latitude":36.8588,"longitude":-120.456},"url":"https://loan-platform.com/cities/california/firebaugh"}},{"@type":"ListItem","position":111,"item":{"@type":"Place","name":"Fowler","address":{"@type":"PostalAddress","addressLocality":"Fowler","addressRegion":"CA","addressCountry":"US"},"geo":{"@type":"GeoCoordinates","latitude":36.6305,"longitude":-119.676},"url":"https://loan-platform.com/cities/california/fowler"}},{"@type":"ListItem","position":112,"item":{"@type":"Place","name":"Grass Valley","address":{"@type":"PostalAddress","addressLocality":"Grass Valley","addressRegion":"CA","addressCountry":"US"},"geo":{"@type":"GeoCoordinates","latitude":39.2191,"longitude":-121.0611},"url":"https://loan-platform.com/cities/california/grass-valley"}},{"@type":"ListItem","position":113,"item":{"@type":"Place","name":"Healdsburg","address":{"@type":"PostalAddress","addressLocality":"Healdsburg","addressRegion":"CA","addressCountry":"US"},"geo":{"@type":"GeoCoordinates","latitude":38.6105,"longitude":-122.8692},"url":"https://loan-platform.com/cities/california/healdsburg"}},{"@type":"ListItem","position":114,"item":{"@type":"Place","name":"Hercules","address":{"@type":"PostalAddress","addressLocality":"Hercules","addressRegion":"CA","addressCountry":"US"},"geo":{"@type":"GeoCoordinates","latitude":38.0171,"longitude":-122.2886},"url":"https://loan-platform.com/cities/california/hercules"}},{"@type":"ListItem","position":115,"item":{"@type":"Place","name":"Hermosa Beach","address":{"@type":"PostalAddress","addressLocality":"Hermosa Beach","addressRegion":"CA","addressCountry":"US"},"geo":{"@type":"GeoCoordinates","latitude":33.8622,"longitude":-118.3995},"url":"https://loan-platform.com/cities/california/hermosa-beach"}},{"@type":"ListItem","position":116,"item":{"@type":"Place","name":"Hidden Hills","address":{"@type":"PostalAddress","addressLocality":"Hidden Hills","addressRegion":"CA","addressCountry":"US"},"geo":{"@type":"GeoCoordinates","latitude":34.1603,"longitude":-118.6526},"url":"https://loan-platform.com/cities/california/hidden-hills"}},{"@type":"ListItem","position":117,"item":{"@type":"Place","name":"Hollister","address":{"@type":"PostalAddress","addressLocality":"Hollister","addressRegion":"CA","addressCountry":"US"},"geo":{"@type":"GeoCoordinates","latitude":36.8525,"longitude":-121.4016},"url":"https://loan-platform.com/cities/california/hollister"}},{"@type":"ListItem","position":118,"item":{"@type":"Place","name":"Huntington Park","address":{"@type":"PostalAddress","addressLocality":"Huntington Park","addressRegion":"CA","addressCountry":"US"},"geo":{"@type":"GeoCoordinates","latitude":33.9817,"longitude":-118.2251},"url":"https://loan-platform.com/cities/california/huntington-park"}},{"@type":"ListItem","position":119,"item":{"@type":"Place","name":"Industry","address":{"@type":"PostalAddress","addressLocality":"Industry","addressRegion":"CA","addressCountry":"US"},"geo":{"@type":"GeoCoordinates","latitude":34.0201,"longitude":-117.9495},"url":"https://loan-platform.com/cities/california/industry"}},{"@type":"ListItem","position":120,"item":{"@type":"Place","name":"Irwindale","address":{"@type":"PostalAddress","addressLocality":"Irwindale","addressRegion":"CA","addressCountry":"US"},"geo":{"@type":"GeoCoordinates","latitude":34.1067,"longitude":-117.9353},"url":"https://loan-platform.com/cities/california/irwindale"}},{"@type":"ListItem","position":121,"item":{"@type":"Place","name":"La Canada Flintridge","address":{"@type":"PostalAddress","addressLocality":"La Canada Flintridge","addressRegion":"CA","addressCountry":"US"},"geo":{"@type":"GeoCoordinates","latitude":34.1983,"longitude":-118.1878},"url":"https://loan-platform.com/cities/california/la-canada-flintridge"}},{"@type":"ListItem","position":122,"item":{"@type":"Place","name":"La Verne","address":{"@type":"PostalAddress","addressLocality":"La Verne","addressRegion":"CA","addressCountry":"US"},"geo":{"@type":"GeoCoordinates","latitude":34.1008,"longitude":-117.7678},"url":"https://loan-platform.com/cities/california/la-verne"}},{"@type":"ListItem","position":123,"item":{"@type":"Place","name":"Laguna Woods","address":{"@type":"PostalAddress","addressLocality":"Laguna Woods","addressRegion":"CA","addressCountry":"US"},"geo":{"@type":"GeoCoordinates","latitude":33.6103,"longitude":-117.7253},"url":"https://loan-platform.com/cities/california/laguna-woods"}},{"@type":"ListItem","position":124,"item":{"@type":"Place","name":"Lawndale","address":{"@type":"PostalAddress","addressLocality":"Lawndale","addressRegion":"CA","addressCountry":"US"},"geo":{"@type":"GeoCoordinates","latitude":33.8872,"longitude":-118.3526},"url":"https://loan-platform.com/cities/california/lawndale"}},{"@type":"ListItem","position":125,"item":{"@type":"Place","name":"Lemoore","address":{"@type":"PostalAddress","addressLocality":"Lemoore","addressRegion":"CA","addressCountry":"US"},"geo":{"@type":"GeoCoordinates","latitude":36.3008,"longitude":-119.7829},"url":"https://loan-platform.com/cities/california/lemoore"}},{"@type":"ListItem","position":126,"item":{"@type":"Place","name":"Lindsay","address":{"@type":"PostalAddress","addressLocality":"Lindsay","addressRegion":"CA","addressCountry":"US"},"geo":{"@type":"GeoCoordinates","latitude":36.203,"longitude":-119.0884},"url":"https://loan-platform.com/cities/california/lindsay"}},{"@type":"ListItem","position":127,"item":{"@type":"Place","name":"Loma Linda","address":{"@type":"PostalAddress","addressLocality":"Loma Linda","addressRegion":"CA","addressCountry":"US"},"geo":{"@type":"GeoCoordinates","latitude":34.0483,"longitude":-117.2612},"url":"https://loan-platform.com/cities/california/loma-linda"}},{"@type":"ListItem","position":128,"item":{"@type":"Place","name":"Los Alamitos","address":{"@type":"PostalAddress","addressLocality":"Los Alamitos","addressRegion":"CA","addressCountry":"US"},"geo":{"@type":"GeoCoordinates","latitude":33.8038,"longitude":-118.0719},"url":"https://loan-platform.com/cities/california/los-alamitos"}},{"@type":"ListItem","position":129,"item":{"@type":"Place","name":"Los Banos","address":{"@type":"PostalAddress","addressLocality":"Los Banos","addressRegion":"CA","addressCountry":"US"},"geo":{"@type":"GeoCoordinates","latitude":37.0583,"longitude":-120.8491},"url":"https://loan-platform.com/cities/california/los-banos"}},{"@type":"ListItem","position":130,"item":{"@type":"Place","name":"Malibu","address":{"@type":"PostalAddress","addressLocality":"Malibu","addressRegion":"CA","addressCountry":"US"},"geo":{"@type":"GeoCoordinates","latitude":34.0259,"longitude":-118.7798},"url":"https://loan-platform.com/cities/california/malibu"}},{"@type":"ListItem","position":131,"item":{"@type":"Place","name":"Mammoth Lakes","address":{"@type":"PostalAddress","addressLocality":"Mammoth Lakes","addressRegion":"CA","addressCountry":"US"},"geo":{"@type":"GeoCoordinates","latitude":37.6485,"longitude":-118.9721},"url":"https://loan-platform.com/cities/california/mammoth-lakes"}},{"@type":"ListItem","position":132,"item":{"@type":"Place","name":"Montclair","address":{"@type":"PostalAddress","addressLocality":"Montclair","addressRegion":"CA","addressCountry":"US"},"geo":{"@type":"GeoCoordinates","latitude":34.0775,"longitude":-117.6898},"url":"https://loan-platform.com/cities/california/montclair"}},{"@type":"ListItem","position":133,"item":{"@type":"Place","name":"Needles","address":{"@type":"PostalAddress","addressLocality":"Needles","addressRegion":"CA","addressCountry":"US"},"geo":{"@type":"GeoCoordinates","latitude":34.8481,"longitude":-114.6141},"url":"https://loan-platform.com/cities/california/needles"}},{"@type":"ListItem","position":134,"item":{"@type":"Place","name":"Norco","address":{"@type":"PostalAddress","addressLocality":"Norco","addressRegion":"CA","addressCountry":"US"},"geo":{"@type":"GeoCoordinates","latitude":33.9311,"longitude":-117.5487},"url":"https://loan-platform.com/cities/california/norco"}},{"@type":"ListItem","position":135,"item":{"@type":"Place","name":"Oakdale","address":{"@type":"PostalAddress","addressLocality":"Oakdale","addressRegion":"CA","addressCountry":"US"},"geo":{"@type":"GeoCoordinates","latitude":37.7566,"longitude":-120.8455},"url":"https://loan-platform.com/cities/california/oakdale"}},{"@type":"ListItem","position":136,"item":{"@type":"Place","name":"Oakley","address":{"@type":"PostalAddress","addressLocality":"Oakley","addressRegion":"CA","addressCountry":"US"},"geo":{"@type":"GeoCoordinates","latitude":37.9974,"longitude":-121.7125},"url":"https://loan-platform.com/cities/california/oakley"}},{"@type":"ListItem","position":137,"item":{"@type":"Place","name":"Orinda","address":{"@type":"PostalAddress","addressLocality":"Orinda","addressRegion":"CA","addressCountry":"US"},"geo":{"@type":"GeoCoordinates","latitude":37.8784,"longitude":-122.1797},"url":"https://loan-platform.com/cities/california/orinda"}},{"@type":"ListItem","position":138,"item":{"@type":"Place","name":"Paramount","address":{"@type":"PostalAddress","addressLocality":"Paramount","addressRegion":"CA","addressCountry":"US"},"geo":{"@type":"GeoCoordinates","latitude":33.8895,"longitude":-118.1598},"url":"https://loan-platform.com/cities/california/paramount"}},{"@type":"ListItem","position":139,"item":{"@type":"Place","name":"Piedmont","address":{"@type":"PostalAddress","addressLocality":"Piedmont","addressRegion":"CA","addressCountry":"US"},"geo":{"@type":"GeoCoordinates","latitude":37.8244,"longitude":-122.2316},"url":"https://loan-platform.com/cities/california/piedmont"}},{"@type":"ListItem","position":140,"item":{"@type":"Place","name":"Pismo Beach","address":{"@type":"PostalAddress","addressLocality":"Pismo Beach","addressRegion":"CA","addressCountry":"US"},"geo":{"@type":"GeoCoordinates","latitude":35.1428,"longitude":-120.6413},"url":"https://loan-platform.com/cities/california/pismo-beach"}},{"@type":"ListItem","position":141,"item":{"@type":"Place","name":"Placerville","address":{"@type":"PostalAddress","addressLocality":"Placerville","addressRegion":"CA","addressCountry":"US"},"geo":{"@type":"GeoCoordinates","latitude":38.7296,"longitude":-120.797},"url":"https://loan-platform.com/cities/california/placerville"}},{"@type":"ListItem","position":142,"item":{"@type":"Place","name":"Port Hueneme","address":{"@type":"PostalAddress","addressLocality":"Port Hueneme","addressRegion":"CA","addressCountry":"US"},"geo":{"@type":"GeoCoordinates","latitude":34.1478,"longitude":-119.1951},"url":"https://loan-platform.com/cities/california/port-hueneme"}},{"@type":"ListItem","position":143,"item":{"@type":"Place","name":"Rancho Santa Margarita","address":{"@type":"PostalAddress","addressLocality":"Rancho Santa Margarita","addressRegion":"CA","addressCountry":"US"},"geo":{"@type":"GeoCoordinates","latitude":33.6409,"longitude":-117.6031},"url":"https://loan-platform.com/cities/california/rancho-santa-margarita"}},{"@type":"ListItem","position":144,"item":{"@type":"Place","name":"Ridgecrest","address":{"@type":"PostalAddress","addressLocality":"Ridgecrest","addressRegion":"CA","addressCountry":"US"},"geo":{"@type":"GeoCoordinates","latitude":35.6225,"longitude":-117.6709},"url":"https://loan-platform.com/cities/california/ridgecrest"}},{"@type":"ListItem","position":145,"item":{"@type":"Place","name":"Ripon","address":{"@type":"PostalAddress","addressLocality":"Ripon","addressRegion":"CA","addressCountry":"US"},"geo":{"@type":"GeoCoordinates","latitude":37.7416,"longitude":-121.1243},"url":"https://loan-platform.com/cities/california/ripon"}},{"@type":"ListItem","position":146,"item":{"@type":"Place","name":"Rolling Hills","address":{"@type":"PostalAddress","addressLocality":"Rolling Hills","addressRegion":"CA","addressCountry":"US"},"geo":{"@type":"GeoCoordinates","latitude":33.7629,"longitude":-118.3473},"url":"https://loan-platform.com/cities/california/rolling-hills"}},{"@type":"ListItem","position":147,"item":{"@type":"Place","name":"San Dimas","address":{"@type":"PostalAddress","addressLocality":"San Dimas","addressRegion":"CA","addressCountry":"US"},"geo":{"@type":"GeoCoordinates","latitude":34.1067,"longitude":-117.8067},"url":"https://loan-platform.com/cities/california/san-dimas"}},{"@type":"ListItem","position":148,"item":{"@type":"Place","name":"San Fernando","address":{"@type":"PostalAddress","addressLocality":"San Fernando","addressRegion":"CA","addressCountry":"US"},"geo":{"@type":"GeoCoordinates","latitude":34.2819,"longitude":-118.4389},"url":"https://loan-platform.com/cities/california/san-fernando"}},{"@type":"ListItem","position":149,"item":{"@type":"Place","name":"San Pablo","address":{"@type":"PostalAddress","addressLocality":"San Pablo","addressRegion":"CA","addressCountry":"US"},"geo":{"@type":"GeoCoordinates","latitude":37.9621,"longitude":-122.3455},"url":"https://loan-platform.com/cities/california/san-pablo"}},{"@type":"ListItem","position":150,"item":{"@type":"Place","name":"San Anselmo","address":{"@type":"PostalAddress","addressLocality":"San Anselmo","addressRegion":"CA","addressCountry":"US"},"geo":{"@type":"GeoCoordinates","latitude":37.9744,"longitude":-122.561},"url":"https://loan-platform.com/cities/california/san-anselmo"}},{"@type":"ListItem","position":151,"item":{"@type":"Place","name":"Santa Paula","address":{"@type":"PostalAddress","addressLocality":"Santa Paula","addressRegion":"CA","addressCountry":"US"},"geo":{"@type":"GeoCoordinates","latitude":34.3542,"longitude":-119.0593},"url":"https://loan-platform.com/cities/california/santa-paula"}},{"@type":"ListItem","position":152,"item":{"@type":"Place","name":"Saratoga","address":{"@type":"PostalAddress","addressLocality":"Saratoga","addressRegion":"CA","addressCountry":"US"},"geo":{"@type":"GeoCoordinates","latitude":37.2638,"longitude":-122.023},"url":"https://loan-platform.com/cities/california/saratoga"}},{"@type":"ListItem","position":153,"item":{"@type":"Place","name":"Sebastopol","address":{"@type":"PostalAddress","addressLocality":"Sebastopol","addressRegion":"CA","addressCountry":"US"},"geo":{"@type":"GeoCoordinates","latitude":38.4021,"longitude":-122.8239},"url":"https://loan-platform.com/cities/california/sebastopol"}},{"@type":"ListItem","position":154,"item":{"@type":"Place","name":"Shafter","address":{"@type":"PostalAddress","addressLocality":"Shafter","addressRegion":"CA","addressCountry":"US"},"geo":{"@type":"GeoCoordinates","latitude":35.5,"longitude":-119.2718},"url":"https://loan-platform.com/cities/california/shafter"}},{"@type":"ListItem","position":155,"item":{"@type":"Place","name":"Signal Hill","address":{"@type":"PostalAddress","addressLocality":"Signal Hill","addressRegion":"CA","addressCountry":"US"},"geo":{"@type":"GeoCoordinates","latitude":33.8045,"longitude":-118.1678},"url":"https://loan-platform.com/cities/california/signal-hill"}},{"@type":"ListItem","position":156,"item":{"@type":"Place","name":"Solana Beach","address":{"@type":"PostalAddress","addressLocality":"Solana Beach","addressRegion":"CA","addressCountry":"US"},"geo":{"@type":"GeoCoordinates","latitude":32.9912,"longitude":-117.2713},"url":"https://loan-platform.com/cities/california/solana-beach"}},{"@type":"ListItem","position":157,"item":{"@type":"Place","name":"Solvang","address":{"@type":"PostalAddress","addressLocality":"Solvang","addressRegion":"CA","addressCountry":"US"},"geo":{"@type":"GeoCoordinates","latitude":34.5958,"longitude":-120.1376},"url":"https://loan-platform.com/cities/california/solvang"}},{"@type":"ListItem","position":158,"item":{"@type":"Place","name":"Sonoma","address":{"@type":"PostalAddress","addressLocality":"Sonoma","addressRegion":"CA","addressCountry":"US"},"geo":{"@type":"GeoCoordinates","latitude":38.2919,"longitude":-122.458},"url":"https://loan-platform.com/cities/california/sonoma"}},{"@type":"ListItem","position":159,"item":{"@type":"Place","name":"South Gate","address":{"@type":"PostalAddress","addressLocality":"South Gate","addressRegion":"CA","addressCountry":"US"},"geo":{"@type":"GeoCoordinates","latitude":33.9547,"longitude":-118.212},"url":"https://loan-platform.com/cities/california/south-gate"}},{"@type":"ListItem","position":160,"item":{"@type":"Place","name":"South Lake Tahoe","address":{"@type":"PostalAddress","addressLocality":"South Lake Tahoe","addressRegion":"CA","addressCountry":"US"},"geo":{"@type":"GeoCoordinates","latitude":38.9332,"longitude":-119.9772},"url":"https://loan-platform.com/cities/california/south-lake-tahoe"}},{"@type":"ListItem","position":161,"item":{"@type":"Place","name":"Tehachapi","address":{"@type":"PostalAddress","addressLocality":"Tehachapi","addressRegion":"CA","addressCountry":"US"},"geo":{"@type":"GeoCoordinates","latitude":35.1268,"longitude":-118.4489},"url":"https://loan-platform.com/cities/california/tehachapi"}},{"@type":"ListItem","position":162,"item":{"@type":"Place","name":"Tiburon","address":{"@type":"PostalAddress","addressLocality":"Tiburon","addressRegion":"CA","addressCountry":"US"},"geo":{"@type":"GeoCoordinates","latitude":37.8735,"longitude":-122.4566},"url":"https://loan-platform.com/cities/california/tiburon"}},{"@type":"ListItem","position":163,"item":{"@type":"Place","name":"Truckee","address":{"@type":"PostalAddress","addressLocality":"Truckee","addressRegion":"CA","addressCountry":"US"},"geo":{"@type":"GeoCoordinates","latitude":39.3279,"longitude":-120.1833},"url":"https://loan-platform.com/cities/california/truckee"}},{"@type":"ListItem","position":164,"item":{"@type":"Place","name":"West Hollywood","address":{"@type":"PostalAddress","addressLocality":"West Hollywood","addressRegion":"CA","addressCountry":"US"},"geo":{"@type":"GeoCoordinates","latitude":34.09,"longitude":-118.3617},"url":"https://loan-platform.com/cities/california/west-hollywood"}},{"@type":"ListItem","position":165,"item":{"@type":"Place","name":"Westlake Village","address":{"@type":"PostalAddress","addressLocality":"Westlake Village","addressRegion":"CA","addressCountry":"US"},"geo":{"@type":"GeoCoordinates","latitude":34.1466,"longitude":-118.807},"url":"https://loan-platform.com/cities/california/westlake-village"}},{"@type":"ListItem","position":166,"item":{"@type":"Place","name":"Windsor","address":{"@type":"PostalAddress","addressLocality":"Windsor","addressRegion":"CA","addressCountry":"US"},"geo":{"@type":"GeoCoordinates","latitude":38.5471,"longitude":-122.8164},"url":"https://loan-platform.com/cities/california/windsor"}},{"@type":"ListItem","position":167,"item":{"@type":"Place","name":"Yreka","address":{"@type":"PostalAddress","addressLocality":"Yreka","addressRegion":"CA","addressCountry":"US"},"geo":{"@type":"GeoCoordinates","latitude":41.7353,"longitude":-122.6345},"url":"https://loan-platform.com/cities/california/yreka"}},{"@type":"ListItem","position":168,"item":{"@type":"Place","name":"Carpinteria","address":{"@type":"PostalAddress","addressLocality":"Carpinteria","addressRegion":"CA","addressCountry":"US"},"geo":{"@type":"GeoCoordinates","latitude":34.3989,"longitude":-119.5185},"url":"https://loan-platform.com/cities/california/carpinteria"}},{"@type":"ListItem","position":169,"item":{"@type":"Place","name":"Bedford","address":{"@type":"PostalAddress","addressLocality":"Bedford","addressRegion":"TX","addressCountry":"US"},"geo":{"@type":"GeoCoordinates","latitude":32.844,"longitude":-97.1431},"url":"https://loan-platform.com/cities/texas/bedford"}},{"@type":"ListItem","position":170,"item":{"@type":"Place","name":"Blue Mound","address":{"@type":"PostalAddress","addressLocality":"Blue Mound","addressRegion":"TX","addressCountry":"US"},"geo":{"@type":"GeoCoordinates","latitude":32.8554,"longitude":-97.3417},"url":"https://loan-platform.com/cities/texas/blue-mound"}},{"@type":"ListItem","position":171,"item":{"@type":"Place","name":"White Settlement","address":{"@type":"PostalAddress","addressLocality":"White Settlement","addressRegion":"TX","addressCountry":"US"},"geo":{"@type":"GeoCoordinates","latitude":32.7596,"longitude":-97.4586},"url":"https://loan-platform.com/cities/texas/white-settlement"}},{"@type":"ListItem","position":172,"item":{"@type":"Place","name":"Burkburnett","address":{"@type":"PostalAddress","addressLocality":"Burkburnett","addressRegion":"TX","addressCountry":"US"},"geo":{"@type":"GeoCoordinates","latitude":34.0973,"longitude":-98.5706},"url":"https://loan-platform.com/cities/texas/burkburnett"}},{"@type":"ListItem","position":173,"item":{"@type":"Place","name":"Aransas Pass","address":{"@type":"PostalAddress","addressLocality":"Aransas Pass","addressRegion":"TX","addressCountry":"US"},"geo":{"@type":"GeoCoordinates","latitude":27.9095,"longitude":-97.1467},"url":"https://loan-platform.com/cities/texas/aransas-pass"}},{"@type":"ListItem","position":174,"item":{"@type":"Place","name":"Balcones Heights","address":{"@type":"PostalAddress","addressLocality":"Balcones Heights","addressRegion":"TX","addressCountry":"US"},"geo":{"@type":"GeoCoordinates","latitude":29.4872,"longitude":-98.5528},"url":"https://loan-platform.com/cities/texas/balcones-heights"}},{"@type":"ListItem","position":175,"item":{"@type":"Place","name":"Brownwood","address":{"@type":"PostalAddress","addressLocality":"Brownwood","addressRegion":"TX","addressCountry":"US"},"geo":{"@type":"GeoCoordinates","latitude":31.7093,"longitude":-98.9912},"url":"https://loan-platform.com/cities/texas/brownwood"}},{"@type":"ListItem","position":176,"item":{"@type":"Place","name":"Cuero","address":{"@type":"PostalAddress","addressLocality":"Cuero","addressRegion":"TX","addressCountry":"US"},"geo":{"@type":"GeoCoordinates","latitude":29.0933,"longitude":-97.2897},"url":"https://loan-platform.com/cities/texas/cuero"}},{"@type":"ListItem","position":177,"item":{"@type":"Place","name":"Elgin","address":{"@type":"PostalAddress","addressLocality":"Elgin","addressRegion":"TX","addressCountry":"US"},"geo":{"@type":"GeoCoordinates","latitude":30.3494,"longitude":-97.37},"url":"https://loan-platform.com/cities/texas/elgin"}},{"@type":"ListItem","position":178,"item":{"@type":"Place","name":"Gatesville","address":{"@type":"PostalAddress","addressLocality":"Gatesville","addressRegion":"TX","addressCountry":"US"},"geo":{"@type":"GeoCoordinates","latitude":31.4355,"longitude":-97.7434},"url":"https://loan-platform.com/cities/texas/gatesville"}},{"@type":"ListItem","position":179,"item":{"@type":"Place","name":"Granbury","address":{"@type":"PostalAddress","addressLocality":"Granbury","addressRegion":"TX","addressCountry":"US"},"geo":{"@type":"GeoCoordinates","latitude":32.4421,"longitude":-97.7942},"url":"https://loan-platform.com/cities/texas/granbury"}},{"@type":"ListItem","position":180,"item":{"@type":"Place","name":"Gun Barrel City","address":{"@type":"PostalAddress","addressLocality":"Gun Barrel City","addressRegion":"TX","addressCountry":"US"},"geo":{"@type":"GeoCoordinates","latitude":32.3265,"longitude":-96.1261},"url":"https://loan-platform.com/cities/texas/gun-barrel-city"}},{"@type":"ListItem","position":181,"item":{"@type":"Place","name":"Hidalgo","address":{"@type":"PostalAddress","addressLocality":"Hidalgo","addressRegion":"TX","addressCountry":"US"},"geo":{"@type":"GeoCoordinates","latitude":26.1059,"longitude":-98.2637},"url":"https://loan-platform.com/cities/texas/hidalgo"}},{"@type":"ListItem","position":182,"item":{"@type":"Place","name":"Hondo","address":{"@type":"PostalAddress","addressLocality":"Hondo","addressRegion":"TX","addressCountry":"US"},"geo":{"@type":"GeoCoordinates","latitude":29.3477,"longitude":-99.1414},"url":"https://loan-platform.com/cities/texas/hondo"}},{"@type":"ListItem","position":183,"item":{"@type":"Place","name":"Kerrville","address":{"@type":"PostalAddress","addressLocality":"Kerrville","addressRegion":"TX","addressCountry":"US"},"geo":{"@type":"GeoCoordinates","latitude":30.0474,"longitude":-99.14},"url":"https://loan-platform.com/cities/texas/kerrville"}},{"@type":"ListItem","position":184,"item":{"@type":"Place","name":"Canyon","address":{"@type":"PostalAddress","addressLocality":"Canyon","addressRegion":"TX","addressCountry":"US"},"geo":{"@type":"GeoCoordinates","latitude":34.9803,"longitude":-101.9188},"url":"https://loan-platform.com/cities/texas/canyon"}},{"@type":"ListItem","position":185,"item":{"@type":"Place","name":"Lampasas","address":{"@type":"PostalAddress","addressLocality":"Lampasas","addressRegion":"TX","addressCountry":"US"},"geo":{"@type":"GeoCoordinates","latitude":31.0635,"longitude":-98.181},"url":"https://loan-platform.com/cities/texas/lampasas"}},{"@type":"ListItem","position":186,"item":{"@type":"Place","name":"Marshall","address":{"@type":"PostalAddress","addressLocality":"Marshall","addressRegion":"TX","addressCountry":"US"},"geo":{"@type":"GeoCoordinates","latitude":32.5449,"longitude":-94.3674},"url":"https://loan-platform.com/cities/texas/marshall"}},{"@type":"ListItem","position":187,"item":{"@type":"Place","name":"McGregor","address":{"@type":"PostalAddress","addressLocality":"McGregor","addressRegion":"TX","addressCountry":"US"},"geo":{"@type":"GeoCoordinates","latitude":31.4402,"longitude":-97.4095},"url":"https://loan-platform.com/cities/texas/mcgregor"}},{"@type":"ListItem","position":188,"item":{"@type":"Place","name":"Midlothian","address":{"@type":"PostalAddress","addressLocality":"Midlothian","addressRegion":"TX","addressCountry":"US"},"geo":{"@type":"GeoCoordinates","latitude":32.4824,"longitude":-96.9947},"url":"https://loan-platform.com/cities/texas/midlothian"}},{"@type":"ListItem","position":189,"item":{"@type":"Place","name":"Paris","address":{"@type":"PostalAddress","addressLocality":"Paris","addressRegion":"TX","addressCountry":"US"},"geo":{"@type":"GeoCoordinates","latitude":33.6609,"longitude":-95.5555},"url":"https://loan-platform.com/cities/texas/paris"}},{"@type":"ListItem","position":190,"item":{"@type":"Place","name":"Port Lavaca","address":{"@type":"PostalAddress","addressLocality":"Port Lavaca","addressRegion":"TX","addressCountry":"US"},"geo":{"@type":"GeoCoordinates","latitude":28.615,"longitude":-96.6264},"url":"https://loan-platform.com/cities/texas/port-lavaca"}},{"@type":"ListItem","position":191,"item":{"@type":"Place","name":"Port Isabel","address":{"@type":"PostalAddress","addressLocality":"Port Isabel","addressRegion":"TX","addressCountry":"US"},"geo":{"@type":"GeoCoordinates","latitude":26.0734,"longitude":-97.2086},"url":"https://loan-platform.com/cities/texas/port-isabel"}},{"@type":"ListItem","position":192,"item":{"@type":"Place","name":"Sachse","address":{"@type":"PostalAddress","addressLocality":"Sachse","addressRegion":"TX","addressCountry":"US"},"geo":{"@type":"GeoCoordinates","latitude":32.9762,"longitude":-96.5958},"url":"https://loan-platform.com/cities/texas/sachse"}},{"@type":"ListItem","position":193,"item":{"@type":"Place","name":"San Elizario","address":{"@type":"PostalAddress","addressLocality":"San Elizario","addressRegion":"TX","addressCountry":"US"},"geo":{"@type":"GeoCoordinates","latitude":31.5907,"longitude":-106.2692},"url":"https://loan-platform.com/cities/texas/san-elizario"}},{"@type":"ListItem","position":194,"item":{"@type":"Place","name":"Seagoville","address":{"@type":"PostalAddress","addressLocality":"Seagoville","addressRegion":"TX","addressCountry":"US"},"geo":{"@type":"GeoCoordinates","latitude":32.639,"longitude":-96.5386},"url":"https://loan-platform.com/cities/texas/seagoville"}},{"@type":"ListItem","position":195,"item":{"@type":"Place","name":"Terrell","address":{"@type":"PostalAddress","addressLocality":"Terrell","addressRegion":"TX","addressCountry":"US"},"geo":{"@type":"GeoCoordinates","latitude":32.7357,"longitude":-96.2753},"url":"https://loan-platform.com/cities/texas/terrell"}},{"@type":"ListItem","position":196,"item":{"@type":"Place","name":"Texarkana","address":{"@type":"PostalAddress","addressLocality":"Texarkana","addressRegion":"TX","addressCountry":"US"},"geo":{"@type":"GeoCoordinates","latitude":33.4251,"longitude":-94.0477},"url":"https://loan-platform.com/cities/texas/texarkana"}},{"@type":"ListItem","position":197,"item":{"@type":"Place","name":"Tomball","address":{"@type":"PostalAddress","addressLocality":"Tomball","addressRegion":"TX","addressCountry":"US"},"geo":{"@type":"GeoCoordinates","latitude":30.0972,"longitude":-95.6161},"url":"https://loan-platform.com/cities/texas/tomball"}},{"@type":"ListItem","position":198,"item":{"@type":"Place","name":"Uvalde","address":{"@type":"PostalAddress","addressLocality":"Uvalde","addressRegion":"TX","addressCountry":"US"},"geo":{"@type":"GeoCoordinates","latitude":29.2097,"longitude":-99.7862},"url":"https://loan-platform.com/cities/texas/uvalde"}},{"@type":"ListItem","position":199,"item":{"@type":"Place","name":"Wharton","address":{"@type":"PostalAddress","addressLocality":"Wharton","addressRegion":"TX","addressCountry":"US"},"geo":{"@type":"GeoCoordinates","latitude":29.3119,"longitude":-96.1039},"url":"https://loan-platform.com/cities/texas/wharton"}},{"@type":"ListItem","position":200,"item":{"@type":"Place","name":"Alamo Heights","address":{"@type":"PostalAddress","addressLocality":"Alamo Heights","addressRegion":"TX","addressCountry":"US"},"geo":{"@type":"GeoCoordinates","latitude":29.4822,"longitude":-98.4683},"url":"https://loan-platform.com/cities/texas/alamo-heights"}},{"@type":"ListItem","position":201,"item":{"@type":"Place","name":"Keller","address":{"@type":"PostalAddress","addressLocality":"Keller","addressRegion":"TX","addressCountry":"US"},"geo":{"@type":"GeoCoordinates","latitude":32.9343,"longitude":-97.2516},"url":"https://loan-platform.com/cities/texas/keller"}},{"@type":"ListItem","position":202,"item":{"@type":"Place","name":"Universal City","address":{"@type":"PostalAddress","addressLocality":"Universal City","addressRegion":"TX","addressCountry":"US"},"geo":{"@type":"GeoCoordinates","latitude":29.5484,"longitude":-98.2915},"url":"https://loan-platform.com/cities/texas/universal-city"}},{"@type":"ListItem","position":203,"item":{"@type":"Place","name":"Weslaco","address":{"@type":"PostalAddress","addressLocality":"Weslaco","addressRegion":"TX","addressCountry":"US"},"geo":{"@type":"GeoCoordinates","latitude":26.1595,"longitude":-97.9908},"url":"https://loan-platform.com/cities/texas/weslaco"}},{"@type":"ListItem","position":204,"item":{"@type":"Place","name":"Canyon Lake","address":{"@type":"PostalAddress","addressLocality":"Canyon Lake","addressRegion":"TX","addressCountry":"US"},"geo":{"@type":"GeoCoordinates","latitude":29.8753,"longitude":-98.2625},"url":"https://loan-platform.com/cities/texas/canyon-lake"}},{"@type":"ListItem","position":205,"item":{"@type":"Place","name":"Hereford","address":{"@type":"PostalAddress","addressLocality":"Hereford","addressRegion":"TX","addressCountry":"US"},"geo":{"@type":"GeoCoordinates","latitude":34.815,"longitude":-102.398},"url":"https://loan-platform.com/cities/texas/hereford"}},{"@type":"ListItem","position":206,"item":{"@type":"Place","name":"Levelland","address":{"@type":"PostalAddress","addressLocality":"Levelland","addressRegion":"TX","addressCountry":"US"},"geo":{"@type":"GeoCoordinates","latitude":33.5873,"longitude":-102.3771},"url":"https://loan-platform.com/cities/texas/levelland"}},{"@type":"ListItem","position":207,"item":{"@type":"Place","name":"Borger","address":{"@type":"PostalAddress","addressLocality":"Borger","addressRegion":"TX","addressCountry":"US"},"geo":{"@type":"GeoCoordinates","latitude":35.667,"longitude":-101.3974},"url":"https://loan-platform.com/cities/texas/borger"}},{"@type":"ListItem","position":208,"item":{"@type":"Place","name":"Snyder","address":{"@type":"PostalAddress","addressLocality":"Snyder","addressRegion":"TX","addressCountry":"US"},"geo":{"@type":"GeoCoordinates","latitude":32.7179,"longitude":-100.9176},"url":"https://loan-platform.com/cities/texas/snyder"}},{"@type":"ListItem","position":209,"item":{"@type":"Place","name":"Sweetwater","address":{"@type":"PostalAddress","addressLocality":"Sweetwater","addressRegion":"TX","addressCountry":"US"},"geo":{"@type":"GeoCoordinates","latitude":32.4707,"longitude":-100.406},"url":"https://loan-platform.com/cities/texas/sweetwater"}},{"@type":"ListItem","position":210,"item":{"@type":"Place","name":"Navasota","address":{"@type":"PostalAddress","addressLocality":"Navasota","addressRegion":"TX","addressCountry":"US"},"geo":{"@type":"GeoCoordinates","latitude":30.3877,"longitude":-96.0877},"url":"https://loan-platform.com/cities/texas/navasota"}},{"@type":"ListItem","position":211,"item":{"@type":"Place","name":"Humble","address":{"@type":"PostalAddress","addressLocality":"Humble","addressRegion":"TX","addressCountry":"US"},"geo":{"@type":"GeoCoordinates","latitude":29.9988,"longitude":-95.2622},"url":"https://loan-platform.com/cities/texas/humble"}},{"@type":"ListItem","position":212,"item":{"@type":"Place","name":"Lake Jackson","address":{"@type":"PostalAddress","addressLocality":"Lake Jackson","addressRegion":"TX","addressCountry":"US"},"geo":{"@type":"GeoCoordinates","latitude":29.036,"longitude":-95.4344},"url":"https://loan-platform.com/cities/texas/lake-jackson"}},{"@type":"ListItem","position":213,"item":{"@type":"Place","name":"Seabrook","address":{"@type":"PostalAddress","addressLocality":"Seabrook","addressRegion":"TX","addressCountry":"US"},"geo":{"@type":"GeoCoordinates","latitude":29.564,"longitude":-95.0255},"url":"https://loan-platform.com/cities/texas/seabrook"}},{"@type":"ListItem","position":214,"item":{"@type":"Place","name":"La Marque","address":{"@type":"PostalAddress","addressLocality":"La Marque","addressRegion":"TX","addressCountry":"US"},"geo":{"@type":"GeoCoordinates","latitude":29.3683,"longitude":-94.9719},"url":"https://loan-platform.com/cities/texas/la-marque"}},{"@type":"ListItem","position":215,"item":{"@type":"Place","name":"Lauderdale Lakes","address":{"@type":"PostalAddress","addressLocality":"Lauderdale Lakes","addressRegion":"FL","addressCountry":"US"},"geo":{"@type":"GeoCoordinates","latitude":26.1667,"longitude":-80.2084},"url":"https://loan-platform.com/cities/florida/lauderdale-lakes"}},{"@type":"ListItem","position":216,"item":{"@type":"Place","name":"Oakland Park","address":{"@type":"PostalAddress","addressLocality":"Oakland Park","addressRegion":"FL","addressCountry":"US"},"geo":{"@type":"GeoCoordinates","latitude":26.1723,"longitude":-80.1319},"url":"https://loan-platform.com/cities/florida/oakland-park"}},{"@type":"ListItem","position":217,"item":{"@type":"Place","name":"North Bay Village","address":{"@type":"PostalAddress","addressLocality":"North Bay Village","addressRegion":"FL","addressCountry":"US"},"geo":{"@type":"GeoCoordinates","latitude":25.8465,"longitude":-80.1544},"url":"https://loan-platform.com/cities/florida/north-bay-village"}},{"@type":"ListItem","position":218,"item":{"@type":"Place","name":"Miami Shores","address":{"@type":"PostalAddress","addressLocality":"Miami Shores","addressRegion":"FL","addressCountry":"US"},"geo":{"@type":"GeoCoordinates","latitude":25.8638,"longitude":-80.1925},"url":"https://loan-platform.com/cities/florida/miami-shores"}},{"@type":"ListItem","position":219,"item":{"@type":"Place","name":"Sweetwater","address":{"@type":"PostalAddress","addressLocality":"Sweetwater","addressRegion":"FL","addressCountry":"US"},"geo":{"@type":"GeoCoordinates","latitude":25.764,"longitude":-80.3733},"url":"https://loan-platform.com/cities/florida/sweetwater-fl"}},{"@type":"ListItem","position":220,"item":{"@type":"Place","name":"Florida City","address":{"@type":"PostalAddress","addressLocality":"Florida City","addressRegion":"FL","addressCountry":"US"},"geo":{"@type":"GeoCoordinates","latitude":25.447,"longitude":-80.4798},"url":"https://loan-platform.com/cities/florida/florida-city"}},{"@type":"ListItem","position":221,"item":{"@type":"Place","name":"Royal Palm Beach","address":{"@type":"PostalAddress","addressLocality":"Royal Palm Beach","addressRegion":"FL","addressCountry":"US"},"geo":{"@type":"GeoCoordinates","latitude":26.7083,"longitude":-80.23},"url":"https://loan-platform.com/cities/florida/royal-palm-beach"}},{"@type":"ListItem","position":222,"item":{"@type":"Place","name":"Palmetto Bay","address":{"@type":"PostalAddress","addressLocality":"Palmetto Bay","addressRegion":"FL","addressCountry":"US"},"geo":{"@type":"GeoCoordinates","latitude":25.6217,"longitude":-80.3247},"url":"https://loan-platform.com/cities/florida/palmetto-bay"}},{"@type":"ListItem","position":223,"item":{"@type":"Place","name":"Key West","address":{"@type":"PostalAddress","addressLocality":"Key West","addressRegion":"FL","addressCountry":"US"},"geo":{"@type":"GeoCoordinates","latitude":24.5551,"longitude":-81.78},"url":"https://loan-platform.com/cities/florida/key-west"}},{"@type":"ListItem","position":224,"item":{"@type":"Place","name":"Punta Gorda","address":{"@type":"PostalAddress","addressLocality":"Punta Gorda","addressRegion":"FL","addressCountry":"US"},"geo":{"@type":"GeoCoordinates","latitude":26.9298,"longitude":-82.0454},"url":"https://loan-platform.com/cities/florida/punta-gorda"}},{"@type":"ListItem","position":225,"item":{"@type":"Place","name":"Palmetto","address":{"@type":"PostalAddress","addressLocality":"Palmetto","addressRegion":"FL","addressCountry":"US"},"geo":{"@type":"GeoCoordinates","latitude":27.5214,"longitude":-82.5723},"url":"https://loan-platform.com/cities/florida/palmetto-fl"}},{"@type":"ListItem","position":226,"item":{"@type":"Place","name":"Marco Island","address":{"@type":"PostalAddress","addressLocality":"Marco Island","addressRegion":"FL","addressCountry":"US"},"geo":{"@type":"GeoCoordinates","latitude":25.939,"longitude":-81.7173},"url":"https://loan-platform.com/cities/florida/marco-island"}},{"@type":"ListItem","position":227,"item":{"@type":"Place","name":"Oldsmar","address":{"@type":"PostalAddress","addressLocality":"Oldsmar","addressRegion":"FL","addressCountry":"US"},"geo":{"@type":"GeoCoordinates","latitude":28.034,"longitude":-82.6651},"url":"https://loan-platform.com/cities/florida/oldsmar"}},{"@type":"ListItem","position":228,"item":{"@type":"Place","name":"Lake Mary","address":{"@type":"PostalAddress","addressLocality":"Lake Mary","addressRegion":"FL","addressCountry":"US"},"geo":{"@type":"GeoCoordinates","latitude":28.792,"longitude":-81.3178},"url":"https://loan-platform.com/cities/florida/lake-mary"}},{"@type":"ListItem","position":229,"item":{"@type":"Place","name":"Eastvale","address":{"@type":"PostalAddress","addressLocality":"Eastvale","addressRegion":"CA","addressCountry":"US"},"geo":{"@type":"GeoCoordinates","latitude":33.9525,"longitude":-117.5603},"url":"https://loan-platform.com/cities/california/eastvale"}},{"@type":"ListItem","position":230,"item":{"@type":"Place","name":"Jurupa Valley","address":{"@type":"PostalAddress","addressLocality":"Jurupa Valley","addressRegion":"CA","addressCountry":"US"},"geo":{"@type":"GeoCoordinates","latitude":33.997,"longitude":-117.4853},"url":"https://loan-platform.com/cities/california/jurupa-valley"}},{"@type":"ListItem","position":231,"item":{"@type":"Place","name":"San Jacinto","address":{"@type":"PostalAddress","addressLocality":"San Jacinto","addressRegion":"CA","addressCountry":"US"},"geo":{"@type":"GeoCoordinates","latitude":33.7839,"longitude":-116.958},"url":"https://loan-platform.com/cities/california/san-jacinto"}},{"@type":"ListItem","position":232,"item":{"@type":"Place","name":"Beaumont","address":{"@type":"PostalAddress","addressLocality":"Beaumont","addressRegion":"CA","addressCountry":"US"},"geo":{"@type":"GeoCoordinates","latitude":33.9295,"longitude":-116.9772},"url":"https://loan-platform.com/cities/california/beaumont-ca"}},{"@type":"ListItem","position":233,"item":{"@type":"Place","name":"Banning","address":{"@type":"PostalAddress","addressLocality":"Banning","addressRegion":"CA","addressCountry":"US"},"geo":{"@type":"GeoCoordinates","latitude":33.9256,"longitude":-116.8767},"url":"https://loan-platform.com/cities/california/banning"}},{"@type":"ListItem","position":234,"item":{"@type":"Place","name":"Yucaipa","address":{"@type":"PostalAddress","addressLocality":"Yucaipa","addressRegion":"CA","addressCountry":"US"},"geo":{"@type":"GeoCoordinates","latitude":34.0336,"longitude":-117.0431},"url":"https://loan-platform.com/cities/california/yucaipa"}},{"@type":"ListItem","position":235,"item":{"@type":"Place","name":"Highland","address":{"@type":"PostalAddress","addressLocality":"Highland","addressRegion":"CA","addressCountry":"US"},"geo":{"@type":"GeoCoordinates","latitude":34.1283,"longitude":-117.2087},"url":"https://loan-platform.com/cities/california/highland"}},{"@type":"ListItem","position":236,"item":{"@type":"Place","name":"Rancho Palos Verdes","address":{"@type":"PostalAddress","addressLocality":"Rancho Palos Verdes","addressRegion":"CA","addressCountry":"US"},"geo":{"@type":"GeoCoordinates","latitude":33.7445,"longitude":-118.387},"url":"https://loan-platform.com/cities/california/rancho-palos-verdes"}},{"@type":"ListItem","position":237,"item":{"@type":"Place","name":"Palos Verdes Estates","address":{"@type":"PostalAddress","addressLocality":"Palos Verdes Estates","addressRegion":"CA","addressCountry":"US"},"geo":{"@type":"GeoCoordinates","latitude":33.8006,"longitude":-118.3926},"url":"https://loan-platform.com/cities/california/palos-verdes-estates"}},{"@type":"ListItem","position":238,"item":{"@type":"Place","name":"Rolling Hills Estates","address":{"@type":"PostalAddress","addressLocality":"Rolling Hills Estates","addressRegion":"CA","addressCountry":"US"},"geo":{"@type":"GeoCoordinates","latitude":33.787,"longitude":-118.3584},"url":"https://loan-platform.com/cities/california/rolling-hills-estates"}},{"@type":"ListItem","position":239,"item":{"@type":"Place","name":"Lomita","address":{"@type":"PostalAddress","addressLocality":"Lomita","addressRegion":"CA","addressCountry":"US"},"geo":{"@type":"GeoCoordinates","latitude":33.7922,"longitude":-118.3151},"url":"https://loan-platform.com/cities/california/lomita"}},{"@type":"ListItem","position":240,"item":{"@type":"Place","name":"La Habra","address":{"@type":"PostalAddress","addressLocality":"La Habra","addressRegion":"CA","addressCountry":"US"},"geo":{"@type":"GeoCoordinates","latitude":33.9319,"longitude":-117.9461},"url":"https://loan-platform.com/cities/california/la-habra"}},{"@type":"ListItem","position":241,"item":{"@type":"Place","name":"La Palma","address":{"@type":"PostalAddress","addressLocality":"La Palma","addressRegion":"CA","addressCountry":"US"},"geo":{"@type":"GeoCoordinates","latitude":33.8464,"longitude":-118.0467},"url":"https://loan-platform.com/cities/california/la-palma"}},{"@type":"ListItem","position":242,"item":{"@type":"Place","name":"Stanton","address":{"@type":"PostalAddress","addressLocality":"Stanton","addressRegion":"CA","addressCountry":"US"},"geo":{"@type":"GeoCoordinates","latitude":33.8025,"longitude":-117.9939},"url":"https://loan-platform.com/cities/california/stanton"}},{"@type":"ListItem","position":243,"item":{"@type":"Place","name":"Seal Beach","address":{"@type":"PostalAddress","addressLocality":"Seal Beach","addressRegion":"CA","addressCountry":"US"},"geo":{"@type":"GeoCoordinates","latitude":33.7414,"longitude":-118.1048},"url":"https://loan-platform.com/cities/california/seal-beach"}},{"@type":"ListItem","position":244,"item":{"@type":"Place","name":"Clovis","address":{"@type":"PostalAddress","addressLocality":"Clovis","addressRegion":"CA","addressCountry":"US"},"geo":{"@type":"GeoCoordinates","latitude":36.8252,"longitude":-119.7029},"url":"https://loan-platform.com/cities/california/clovis"}},{"@type":"ListItem","position":245,"item":{"@type":"Place","name":"Glendora","address":{"@type":"PostalAddress","addressLocality":"Glendora","addressRegion":"CA","addressCountry":"US"},"geo":{"@type":"GeoCoordinates","latitude":34.1361,"longitude":-117.8645},"url":"https://loan-platform.com/cities/california/glendora"}},{"@type":"ListItem","position":246,"item":{"@type":"Place","name":"Monrovia","address":{"@type":"PostalAddress","addressLocality":"Monrovia","addressRegion":"CA","addressCountry":"US"},"geo":{"@type":"GeoCoordinates","latitude":34.1478,"longitude":-118.1445},"url":"https://loan-platform.com/cities/california/monrovia"}},{"@type":"ListItem","position":247,"item":{"@type":"Place","name":"Duarte","address":{"@type":"PostalAddress","addressLocality":"Duarte","addressRegion":"CA","addressCountry":"US"},"geo":{"@type":"GeoCoordinates","latitude":34.1395,"longitude":-117.9773},"url":"https://loan-platform.com/cities/california/duarte"}},{"@type":"ListItem","position":248,"item":{"@type":"Place","name":"El Centro","address":{"@type":"PostalAddress","addressLocality":"El Centro","addressRegion":"CA","addressCountry":"US"},"geo":{"@type":"GeoCoordinates","latitude":32.792,"longitude":-115.563},"url":"https://loan-platform.com/cities/california/el-centro"}},{"@type":"ListItem","position":249,"item":{"@type":"Place","name":"Calexico","address":{"@type":"PostalAddress","addressLocality":"Calexico","addressRegion":"CA","addressCountry":"US"},"geo":{"@type":"GeoCoordinates","latitude":32.6789,"longitude":-115.4989},"url":"https://loan-platform.com/cities/california/calexico"}},{"@type":"ListItem","position":250,"item":{"@type":"Place","name":"National City","address":{"@type":"PostalAddress","addressLocality":"National City","addressRegion":"CA","addressCountry":"US"},"geo":{"@type":"GeoCoordinates","latitude":32.6781,"longitude":-117.0992},"url":"https://loan-platform.com/cities/california/national-city"}},{"@type":"ListItem","position":251,"item":{"@type":"Place","name":"La Mesa","address":{"@type":"PostalAddress","addressLocality":"La Mesa","addressRegion":"CA","addressCountry":"US"},"geo":{"@type":"GeoCoordinates","latitude":32.7678,"longitude":-117.0231},"url":"https://loan-platform.com/cities/california/la-mesa"}},{"@type":"ListItem","position":252,"item":{"@type":"Place","name":"Santee","address":{"@type":"PostalAddress","addressLocality":"Santee","addressRegion":"CA","addressCountry":"US"},"geo":{"@type":"GeoCoordinates","latitude":32.8384,"longitude":-116.9739},"url":"https://loan-platform.com/cities/california/santee"}},{"@type":"ListItem","position":253,"item":{"@type":"Place","name":"Poway","address":{"@type":"PostalAddress","addressLocality":"Poway","addressRegion":"CA","addressCountry":"US"},"geo":{"@type":"GeoCoordinates","latitude":32.9628,"longitude":-117.0359},"url":"https://loan-platform.com/cities/california/poway"}},{"@type":"ListItem","position":254,"item":{"@type":"Place","name":"Encinitas","address":{"@type":"PostalAddress","addressLocality":"Encinitas","addressRegion":"CA","addressCountry":"US"},"geo":{"@type":"GeoCoordinates","latitude":33.0369,"longitude":-117.291},"url":"https://loan-platform.com/cities/california/encinitas"}},{"@type":"ListItem","position":255,"item":{"@type":"Place","name":"Vista","address":{"@type":"PostalAddress","addressLocality":"Vista","addressRegion":"CA","addressCountry":"US"},"geo":{"@type":"GeoCoordinates","latitude":33.2,"longitude":-117.2425},"url":"https://loan-platform.com/cities/california/vista"}},{"@type":"ListItem","position":256,"item":{"@type":"Place","name":"Rohnert Park","address":{"@type":"PostalAddress","addressLocality":"Rohnert Park","addressRegion":"CA","addressCountry":"US"},"geo":{"@type":"GeoCoordinates","latitude":38.3396,"longitude":-122.7011},"url":"https://loan-platform.com/cities/california/rohnert-park"}},{"@type":"ListItem","position":257,"item":{"@type":"Place","name":"Ukiah","address":{"@type":"PostalAddress","addressLocality":"Ukiah","addressRegion":"CA","addressCountry":"US"},"geo":{"@type":"GeoCoordinates","latitude":39.1502,"longitude":-123.2078},"url":"https://loan-platform.com/cities/california/ukiah"}},{"@type":"ListItem","position":258,"item":{"@type":"Place","name":"Newark","address":{"@type":"PostalAddress","addressLocality":"Newark","addressRegion":"CA","addressCountry":"US"},"geo":{"@type":"GeoCoordinates","latitude":37.5297,"longitude":-122.0402},"url":"https://loan-platform.com/cities/california/newark-ca"}},{"@type":"ListItem","position":259,"item":{"@type":"Place","name":"Menlo Park","address":{"@type":"PostalAddress","addressLocality":"Menlo Park","addressRegion":"CA","addressCountry":"US"},"geo":{"@type":"GeoCoordinates","latitude":37.4529,"longitude":-122.1817},"url":"https://loan-platform.com/cities/california/menlo-park"}},{"@type":"ListItem","position":260,"item":{"@type":"Place","name":"East Palo Alto","address":{"@type":"PostalAddress","addressLocality":"East Palo Alto","addressRegion":"CA","addressCountry":"US"},"geo":{"@type":"GeoCoordinates","latitude":37.4688,"longitude":-122.1411},"url":"https://loan-platform.com/cities/california/east-palo-alto"}},{"@type":"ListItem","position":261,"item":{"@type":"Place","name":"Millbrae","address":{"@type":"PostalAddress","addressLocality":"Millbrae","addressRegion":"CA","addressCountry":"US"},"geo":{"@type":"GeoCoordinates","latitude":37.5986,"longitude":-122.3872},"url":"https://loan-platform.com/cities/california/millbrae"}},{"@type":"ListItem","position":262,"item":{"@type":"Place","name":"Pacifica","address":{"@type":"PostalAddress","addressLocality":"Pacifica","addressRegion":"CA","addressCountry":"US"},"geo":{"@type":"GeoCoordinates","latitude":37.6138,"longitude":-122.4869},"url":"https://loan-platform.com/cities/california/pacifica"}},{"@type":"ListItem","position":263,"item":{"@type":"Place","name":"Half Moon Bay","address":{"@type":"PostalAddress","addressLocality":"Half Moon Bay","addressRegion":"CA","addressCountry":"US"},"geo":{"@type":"GeoCoordinates","latitude":37.4636,"longitude":-122.4286},"url":"https://loan-platform.com/cities/california/half-moon-bay"}},{"@type":"ListItem","position":264,"item":{"@type":"Place","name":"Brea","address":{"@type":"PostalAddress","addressLocality":"Brea","addressRegion":"CA","addressCountry":"US"},"geo":{"@type":"GeoCoordinates","latitude":33.9167,"longitude":-117.9001},"url":"https://loan-platform.com/cities/california/brea"}},{"@type":"ListItem","position":265,"item":{"@type":"Place","name":"Placentia","address":{"@type":"PostalAddress","addressLocality":"Placentia","addressRegion":"CA","addressCountry":"US"},"geo":{"@type":"GeoCoordinates","latitude":33.8722,"longitude":-117.8703},"url":"https://loan-platform.com/cities/california/placentia"}},{"@type":"ListItem","position":266,"item":{"@type":"Place","name":"Laguna Beach","address":{"@type":"PostalAddress","addressLocality":"Laguna Beach","addressRegion":"CA","addressCountry":"US"},"geo":{"@type":"GeoCoordinates","latitude":33.5427,"longitude":-117.7854},"url":"https://loan-platform.com/cities/california/laguna-beach"}},{"@type":"ListItem","position":267,"item":{"@type":"Place","name":"San Juan Capistrano","address":{"@type":"PostalAddress","addressLocality":"San Juan Capistrano","addressRegion":"CA","addressCountry":"US"},"geo":{"@type":"GeoCoordinates","latitude":33.5017,"longitude":-117.6626},"url":"https://loan-platform.com/cities/california/san-juan-capistrano"}},{"@type":"ListItem","position":268,"item":{"@type":"Place","name":"Rockwall","address":{"@type":"PostalAddress","addressLocality":"Rockwall","addressRegion":"TX","addressCountry":"US"},"geo":{"@type":"GeoCoordinates","latitude":32.9312,"longitude":-96.4597},"url":"https://loan-platform.com/cities/texas/rockwall"}},{"@type":"ListItem","position":269,"item":{"@type":"Place","name":"Forney","address":{"@type":"PostalAddress","addressLocality":"Forney","addressRegion":"TX","addressCountry":"US"},"geo":{"@type":"GeoCoordinates","latitude":32.748,"longitude":-96.471},"url":"https://loan-platform.com/cities/texas/forney"}},{"@type":"ListItem","position":270,"item":{"@type":"Place","name":"Prosper","address":{"@type":"PostalAddress","addressLocality":"Prosper","addressRegion":"TX","addressCountry":"US"},"geo":{"@type":"GeoCoordinates","latitude":33.2365,"longitude":-96.8011},"url":"https://loan-platform.com/cities/texas/prosper"}},{"@type":"ListItem","position":271,"item":{"@type":"Place","name":"Balch Springs","address":{"@type":"PostalAddress","addressLocality":"Balch Springs","addressRegion":"TX","addressCountry":"US"},"geo":{"@type":"GeoCoordinates","latitude":32.7282,"longitude":-96.6228},"url":"https://loan-platform.com/cities/texas/balch-springs"}},{"@type":"ListItem","position":272,"item":{"@type":"Place","name":"Watauga","address":{"@type":"PostalAddress","addressLocality":"Watauga","addressRegion":"TX","addressCountry":"US"},"geo":{"@type":"GeoCoordinates","latitude":32.8574,"longitude":-97.2531},"url":"https://loan-platform.com/cities/texas/watauga"}},{"@type":"ListItem","position":273,"item":{"@type":"Place","name":"Saginaw","address":{"@type":"PostalAddress","addressLocality":"Saginaw","addressRegion":"TX","addressCountry":"US"},"geo":{"@type":"GeoCoordinates","latitude":32.8601,"longitude":-97.3631},"url":"https://loan-platform.com/cities/texas/saginaw-tx"}},{"@type":"ListItem","position":274,"item":{"@type":"Place","name":"Benbrook","address":{"@type":"PostalAddress","addressLocality":"Benbrook","addressRegion":"TX","addressCountry":"US"},"geo":{"@type":"GeoCoordinates","latitude":32.6732,"longitude":-97.4606},"url":"https://loan-platform.com/cities/texas/benbrook"}},{"@type":"ListItem","position":275,"item":{"@type":"Place","name":"Azle","address":{"@type":"PostalAddress","addressLocality":"Azle","addressRegion":"TX","addressCountry":"US"},"geo":{"@type":"GeoCoordinates","latitude":32.8951,"longitude":-97.5456},"url":"https://loan-platform.com/cities/texas/azle"}},{"@type":"ListItem","position":276,"item":{"@type":"Place","name":"Crowley","address":{"@type":"PostalAddress","addressLocality":"Crowley","addressRegion":"TX","addressCountry":"US"},"geo":{"@type":"GeoCoordinates","latitude":32.5793,"longitude":-97.362},"url":"https://loan-platform.com/cities/texas/crowley"}},{"@type":"ListItem","position":277,"item":{"@type":"Place","name":"Forest Hill","address":{"@type":"PostalAddress","addressLocality":"Forest Hill","addressRegion":"TX","addressCountry":"US"},"geo":{"@type":"GeoCoordinates","latitude":32.6726,"longitude":-97.222},"url":"https://loan-platform.com/cities/texas/forest-hill"}},{"@type":"ListItem","position":278,"item":{"@type":"Place","name":"Glenn Heights","address":{"@type":"PostalAddress","addressLocality":"Glenn Heights","addressRegion":"TX","addressCountry":"US"},"geo":{"@type":"GeoCoordinates","latitude":32.5485,"longitude":-96.8567},"url":"https://loan-platform.com/cities/texas/glenn-heights"}},{"@type":"ListItem","position":279,"item":{"@type":"Place","name":"University Park","address":{"@type":"PostalAddress","addressLocality":"University Park","addressRegion":"TX","addressCountry":"US"},"geo":{"@type":"GeoCoordinates","latitude":32.8501,"longitude":-96.8005},"url":"https://loan-platform.com/cities/texas/university-park"}},{"@type":"ListItem","position":280,"item":{"@type":"Place","name":"Highland Park","address":{"@type":"PostalAddress","addressLocality":"Highland Park","addressRegion":"TX","addressCountry":"US"},"geo":{"@type":"GeoCoordinates","latitude":32.8336,"longitude":-96.7925},"url":"https://loan-platform.com/cities/texas/highland-park"}},{"@type":"ListItem","position":281,"item":{"@type":"Place","name":"Deer Park","address":{"@type":"PostalAddress","addressLocality":"Deer Park","addressRegion":"TX","addressCountry":"US"},"geo":{"@type":"GeoCoordinates","latitude":29.7052,"longitude":-95.1232},"url":"https://loan-platform.com/cities/texas/deer-park"}},{"@type":"ListItem","position":282,"item":{"@type":"Place","name":"La Porte","address":{"@type":"PostalAddress","addressLocality":"La Porte","addressRegion":"TX","addressCountry":"US"},"geo":{"@type":"GeoCoordinates","latitude":29.6658,"longitude":-95.0194},"url":"https://loan-platform.com/cities/texas/la-porte"}},{"@type":"ListItem","position":283,"item":{"@type":"Place","name":"Alvin","address":{"@type":"PostalAddress","addressLocality":"Alvin","addressRegion":"TX","addressCountry":"US"},"geo":{"@type":"GeoCoordinates","latitude":29.4237,"longitude":-95.2441},"url":"https://loan-platform.com/cities/texas/alvin"}},{"@type":"ListItem","position":284,"item":{"@type":"Place","name":"Angleton","address":{"@type":"PostalAddress","addressLocality":"Angleton","addressRegion":"TX","addressCountry":"US"},"geo":{"@type":"GeoCoordinates","latitude":29.1694,"longitude":-95.4319},"url":"https://loan-platform.com/cities/texas/angleton"}},{"@type":"ListItem","position":285,"item":{"@type":"Place","name":"Freeport","address":{"@type":"PostalAddress","addressLocality":"Freeport","addressRegion":"TX","addressCountry":"US"},"geo":{"@type":"GeoCoordinates","latitude":28.9541,"longitude":-95.3526},"url":"https://loan-platform.com/cities/texas/freeport"}},{"@type":"ListItem","position":286,"item":{"@type":"Place","name":"Rosenberg","address":{"@type":"PostalAddress","addressLocality":"Rosenberg","addressRegion":"TX","addressCountry":"US"},"geo":{"@type":"GeoCoordinates","latitude":29.5571,"longitude":-95.8083},"url":"https://loan-platform.com/cities/texas/rosenberg"}},{"@type":"ListItem","position":287,"item":{"@type":"Place","name":"Richmond","address":{"@type":"PostalAddress","addressLocality":"Richmond","addressRegion":"TX","addressCountry":"US"},"geo":{"@type":"GeoCoordinates","latitude":29.5822,"longitude":-95.7608},"url":"https://loan-platform.com/cities/texas/richmond-tx"}},{"@type":"ListItem","position":288,"item":{"@type":"Place","name":"Katy","address":{"@type":"PostalAddress","addressLocality":"Katy","addressRegion":"TX","addressCountry":"US"},"geo":{"@type":"GeoCoordinates","latitude":29.7858,"longitude":-95.8244},"url":"https://loan-platform.com/cities/texas/katy"}},{"@type":"ListItem","position":289,"item":{"@type":"Place","name":"Bellaire","address":{"@type":"PostalAddress","addressLocality":"Bellaire","addressRegion":"TX","addressCountry":"US"},"geo":{"@type":"GeoCoordinates","latitude":29.7058,"longitude":-95.4588},"url":"https://loan-platform.com/cities/texas/bellaire"}},{"@type":"ListItem","position":290,"item":{"@type":"Place","name":"West University Place","address":{"@type":"PostalAddress","addressLocality":"West University Place","addressRegion":"TX","addressCountry":"US"},"geo":{"@type":"GeoCoordinates","latitude":29.7174,"longitude":-95.4337},"url":"https://loan-platform.com/cities/texas/west-university-place"}},{"@type":"ListItem","position":291,"item":{"@type":"Place","name":"Stafford","address":{"@type":"PostalAddress","addressLocality":"Stafford","addressRegion":"TX","addressCountry":"US"},"geo":{"@type":"GeoCoordinates","latitude":29.6161,"longitude":-95.5577},"url":"https://loan-platform.com/cities/texas/stafford"}},{"@type":"ListItem","position":292,"item":{"@type":"Place","name":"Missouri City","address":{"@type":"PostalAddress","addressLocality":"Missouri City","addressRegion":"TX","addressCountry":"US"},"geo":{"@type":"GeoCoordinates","latitude":29.6186,"longitude":-95.5377},"url":"https://loan-platform.com/cities/texas/missouri-city"}},{"@type":"ListItem","position":293,"item":{"@type":"Place","name":"Pearland","address":{"@type":"PostalAddress","addressLocality":"Pearland","addressRegion":"TX","addressCountry":"US"},"geo":{"@type":"GeoCoordinates","latitude":29.5636,"longitude":-95.286},"url":"https://loan-platform.com/cities/texas/pearland"}},{"@type":"ListItem","position":294,"item":{"@type":"Place","name":"Friendswood","address":{"@type":"PostalAddress","addressLocality":"Friendswood","addressRegion":"TX","addressCountry":"US"},"geo":{"@type":"GeoCoordinates","latitude":29.5294,"longitude":-95.201},"url":"https://loan-platform.com/cities/texas/friendswood"}},{"@type":"ListItem","position":295,"item":{"@type":"Place","name":"League City","address":{"@type":"PostalAddress","addressLocality":"League City","addressRegion":"TX","addressCountry":"US"},"geo":{"@type":"GeoCoordinates","latitude":29.5075,"longitude":-95.0949},"url":"https://loan-platform.com/cities/texas/league-city"}},{"@type":"ListItem","position":296,"item":{"@type":"Place","name":"Texas City","address":{"@type":"PostalAddress","addressLocality":"Texas City","addressRegion":"TX","addressCountry":"US"},"geo":{"@type":"GeoCoordinates","latitude":29.3838,"longitude":-94.9027},"url":"https://loan-platform.com/cities/texas/texas-city"}},{"@type":"ListItem","position":297,"item":{"@type":"Place","name":"Galveston","address":{"@type":"PostalAddress","addressLocality":"Galveston","addressRegion":"TX","addressCountry":"US"},"geo":{"@type":"GeoCoordinates","latitude":29.3013,"longitude":-94.7977},"url":"https://loan-platform.com/cities/texas/galveston"}},{"@type":"ListItem","position":298,"item":{"@type":"Place","name":"The Colony","address":{"@type":"PostalAddress","addressLocality":"The Colony","addressRegion":"TX","addressCountry":"US"},"geo":{"@type":"GeoCoordinates","latitude":33.089,"longitude":-96.8864},"url":"https://loan-platform.com/cities/texas/the-colony"}},{"@type":"ListItem","position":299,"item":{"@type":"Place","name":"Little Elm","address":{"@type":"PostalAddress","addressLocality":"Little Elm","addressRegion":"TX","addressCountry":"US"},"geo":{"@type":"GeoCoordinates","latitude":33.1626,"longitude":-96.9375},"url":"https://loan-platform.com/cities/texas/little-elm"}},{"@type":"ListItem","position":300,"item":{"@type":"Place","name":"Humble","address":{"@type":"PostalAddress","addressLocality":"Humble","addressRegion":"TX","addressCountry":"US"},"geo":{"@type":"GeoCoordinates","latitude":29.9988,"longitude":-95.2622},"url":"https://loan-platform.com/cities/texas/humble"}},{"@type":"ListItem","position":301,"item":{"@type":"Place","name":"Cibolo","address":{"@type":"PostalAddress","addressLocality":"Cibolo","addressRegion":"TX","addressCountry":"US"},"geo":{"@type":"GeoCoordinates","latitude":29.5616,"longitude":-98.2374},"url":"https://loan-platform.com/cities/texas/cibolo"}},{"@type":"ListItem","position":302,"item":{"@type":"Place","name":"Schertz","address":{"@type":"PostalAddress","addressLocality":"Schertz","addressRegion":"TX","addressCountry":"US"},"geo":{"@type":"GeoCoordinates","latitude":29.5522,"longitude":-98.2697},"url":"https://loan-platform.com/cities/texas/schertz"}},{"@type":"ListItem","position":303,"item":{"@type":"Place","name":"Converse","address":{"@type":"PostalAddress","addressLocality":"Converse","addressRegion":"TX","addressCountry":"US"},"geo":{"@type":"GeoCoordinates","latitude":29.5191,"longitude":-98.3161},"url":"https://loan-platform.com/cities/texas/converse"}},{"@type":"ListItem","position":304,"item":{"@type":"Place","name":"Live Oak","address":{"@type":"PostalAddress","addressLocality":"Live Oak","addressRegion":"TX","addressCountry":"US"},